Long,Lat,PARCELID,NAME,ADDRESS,CITY,ZIPCODE,COUNTY,TYPE,POOL,BOATRAMPID,NPSSITE_ID,ST_PARK_ID,OWNER,OPERATING,OP_CLASS,WEB_LINK,FSOURCE,DATASOURCE,LAT_DD,LONG_DD,MGRS,GOOGLEMAP,GCID,ACRES,DESCRIPT,FLAG,UPDATE_DAY,FGDLAQDATE,ORIG_FID
-81.52576210747968,28.526692597060936,282233310020090,GOTHA PARK,10013 PARK RIDGE GOTHA RD,GOTHA,34734,ORANGE,NEIGHBORHOOD PARK / MIXED USE RECREATION,0.0, , , ,ORANGE COUNTY,COUNTY,PUBLIC, ,GEOPLAN,ORLANDOPARKS AND FGDL - STATEWIDE_PARCELS10,28.5266925988,-81.5257621075,17RMM4855955662,https://www.google.com/maps/place/17RMM4855955662,1,1.534,GOTHA PARK,V,2012-02-02 00:00:00,2021-11-18 00:00:00,0
-81.55652480267025,28.528390757574563,282231000000022,GEORGE BAILEY PARK,11974 ROBERSON RD,WINTER GARDEN,34787,ORANGE,NEIGHBORHOOD PARK / ATHLETIC,0.0, , , ,ORANGE COUNTY,COUNTY,PUBLIC, ,GEOPLAN,ORLANDOPARKS AND FGDL - STATEWIDE_PARCELS10,28.5283907593,-81.5565248037,17RMM4555055863,https://www.google.com/maps/place/17RMM4555055863,21,19.907,GEORGE BAILEY PARK,V,2012-02-02 00:00:00,2021-11-18 00:00:00,4
-81.58753955457206,28.576315765117695,272214939202580,NEWTON PARK & BOAT RAMP,29 W GARDEN AVE,WINTER GARDEN,34787,ORANGE,NEIGHBORHOOD PARK / MIXED USE RECREATION,0.0,OR00370XV, , ,CITY OF WINTER GARDEN,MUNICIPALITY,PUBLIC,https://public.myfwc.com/LE/boatramp/public/Ramp.aspx?FacilityID=OR00370XV,GEOPLAN,ORLANDOPARKS AND FGDL - STATEWIDE_PARCELS10,28.5763157659,-81.5875395556,17RMM4254161187,https://www.google.com/maps/place/17RMM4254161187,29,7.906,NEWTON PARK & BOAT RAMP,V,2016-06-17 00:00:00,2021-11-18 00:00:00,5
-81.60677402163205,28.541605636799744,272227000000053,TILDENVILLE PARK,202 SHONGI AVE,WINTER GARDEN,34787,ORANGE,NEIGHBORHOOD PARK / MIXED USE RECREATION,0.0, , , ,ORANGE COUNTY,COUNTY,PUBLIC, ,GEOPLAN,ORLANDOPARKS AND FGDL - STATEWIDE_PARCELS10,28.5416056376,-81.6067740216,17RMM4064157351,https://www.google.com/maps/place/17RMM4064157351,30,4.178,TILDENVILLE PARK,V,2012-02-02 00:00:00,2021-11-18 00:00:00,6
-81.56182127708554,28.541756235698124,272225000000029,WEST ORANGE PARK,150 WINDERMERE RD,WINTER GARDEN,34787,ORANGE,NEIGHBORHOOD PARK / MIXED USE RECREATION,0.0, , , ,ORANGE COUNTY,COUNTY,PUBLIC, ,GEOPLAN,ORLANDOPARKS AND FGDL - STATEWIDE_PARCELS10,28.5417562374,-81.5618212771,17RMM4503957347,https://www.google.com/maps/place/17RMM4503957347,33,43.832,WEST ORANGE PARK,V,2015-04-27 00:00:00,2021-11-18 00:00:00,7
-81.02231094198461,28.56249119427041,332221000000010,FORT CHRISTMAS HISTORICAL PARK,1300 FORT CHRISTMAS RD,CHRISTMAS,32709,ORANGE,NEIGHBORHOOD PARK / MIXED USE RECREATION,0.0, , , ,ORANGE COUNTY,COUNTY,PUBLIC, ,GEOPLAN,ORLANDOPARKS AND FGDL - STATEWIDE_PARCELS10,28.5624911951,-81.022310943,17RMM9781859515,https://www.google.com/maps/place/17RMM9781859515,52,23.881,FORT CHRISTMAS HISTORICAL PARK,V,2015-04-27 00:00:00,2021-11-18 00:00:00,11
-80.99677054479062,28.576555709917432,332214000000001,ORLANDO WETLANDS PARK,25155 WHEELER RD,CHRISTMAS,32709,ORANGE,NATURE PARK,0.0, , , ,CITY OF ORLANDO,MUNICIPALITY,PUBLIC, ,GEOPLAN,ORLANDOPARKS AND FGDL - STATEWIDE_PARCELS10,28.5765557116,-80.9967705458,17RNM0031661073,https://www.google.com/maps/place/17RNM0031661073,53,1628.385,ORLANDO WETLANDS PARK,V,2015-04-27 00:00:00,2021-11-18 00:00:00,12
-81.56613518651668,28.705053806083036,272036000000050,ROOSEVELT NICHOLS PARK,1601 HERMIT SMITH RD,APOPKA,32712,ORANGE,NEIGHBORHOOD PARK / MIXED USE RECREATION,0.0, , , ,ORANGE COUNTY,COUNTY,PUBLIC, ,GEOPLAN,ORLANDOPARKS AND FGDL - STATEWIDE_PARCELS10,28.7050538069,-81.5661351865,17RMM4470275440,https://www.google.com/maps/place/17RMM4470275440,54,6.277,ROOSEVELT NICHOLS PARK,V,2012-02-02 00:00:00,2021-11-18 00:00:00,13
-81.6290389318431,28.766110477418213,272008855905070,TANGERINE PARK,7101 WRIGHT AVE,MOUNT DORA,32757,ORANGE,NEIGHBORHOOD PARK / MIXED USE RECREATION,0.0, , , ,ORANGE COUNTY,COUNTY,PUBLIC, ,GEOPLAN,ORLANDOPARKS AND FGDL - STATEWIDE_PARCELS10,28.7661104791,-81.6290389328,17RMM3859482235,https://www.google.com/maps/place/17RMM3859482235,72,2.819,TANGERINE PARK,V,2012-02-02 00:00:00,2021-11-18 00:00:00,15
-81.61964892219964,28.771586995589463,272004000000049,EAST TANGERINE PARK,6061 TERRELL RD,MOUNT DORA,32757,ORANGE,NEIGHBORHOOD PARK / MIXED USE RECREATION,0.0, , , ,ORANGE COUNTY,COUNTY,PUBLIC, ,GEOPLAN,ORLANDOPARKS AND FGDL - STATEWIDE_PARCELS10,28.7715869973,-81.6196489222,17RMM3951382837,https://www.google.com/maps/place/17RMM3951382837,73,3.227,EAST TANGERINE PARK,V,2016-06-17 00:00:00,2021-11-18 00:00:00,16
-81.31396670646275,28.602608486990714,302204941404000,WINTER PARK ESTATES,2724 ALOMA AVE,WINTER PARK,32792,ORANGE,NEIGHBORHOOD PARK / OPEN SPACE,0.0, , , ,ORANGE COUNTY,COUNTY,PUBLIC, ,GEOPLAN,ORLANDOPARKS AND FGDL - STATEWIDE_PARCELS10,28.6026084887,-81.3139667064,17RMM6930364000,https://www.google.com/maps/place/17RMM6930364000,83,0.217,WINTER PARK ESTATES,V,2012-02-02 00:00:00,2021-11-18 00:00:00,18
-81.35742576632636,28.567344096216164,302218506700020,HARRY P LEU GARDENS,1730 N FOREST AVE,ORLANDO,32803,ORANGE,NEIGHBORHOOD PARK / WALKING PATH,0.0, , , ,CITY OF ORLANDO,MUNICIPALITY,PUBLIC, ,GEOPLAN,ORLANDOPARKS AND FGDL - STATEWIDE_PARCELS10,28.5673440979,-81.3574257673,17RMM6504360105,https://www.google.com/maps/place/17RMM6504360105,107,42.305,HARRY P LEU GARDENS,V,2015-04-27 00:00:00,2021-11-18 00:00:00,19
-81.40395407059293,28.587821331389748,292210384400360,INTERLAKEN PARK,93 INTERLAKEN RD,ORLANDO,32804,ORANGE,NEIGHBORHOOD PARK / OPEN SPACE,0.0, , , ,ORANGE COUNTY,COUNTY,PUBLIC, ,GEOPLAN,ORLANDOPARKS AND FGDL - STATEWIDE_PARCELS10,28.5878213322,-81.4039540706,17RMM6050062388,https://www.google.com/maps/place/17RMM6050062388,127,0.274,INTERLAKEN PARK,V,2012-02-02 00:00:00,2021-11-18 00:00:00,20
-81.42173632462212,28.54310009104544,292228560010010,ROOSEVELT MARTIN PARK,210 BAYSHORE DR,ORLANDO,32805,ORANGE,NEIGHBORHOOD PARK / PLAYGROUND,0.0, , , ,ORANGE COUNTY,COUNTY,PUBLIC, ,GEOPLAN,ORLANDOPARKS AND FGDL - STATEWIDE_PARCELS10,28.5431000928,-81.4217363256,17RMM5874357439,https://www.google.com/maps/place/17RMM5874357439,137,2.142,ROOSEVELT MARTIN PARK,V,2012-02-02 00:00:00,2021-11-18 00:00:00,21
-81.39342383982662,28.519633366309478,292303018023009,KALEY SQUARE PARK,2106 S WESTMORELAND DR,ORLANDO,32805,ORANGE,NEIGHBORHOOD PARK / MIXED USE RECREATION,0.0, , , ,ORANGE COUNTY,COUNTY,PUBLIC, ,GEOPLAN,ORLANDOPARKS AND FGDL - STATEWIDE_PARCELS10,28.5196333671,-81.3934238409,17RMM6150554830,https://www.google.com/maps/place/17RMM6150554830,146,1.969,KALEY SQUARE PARK,V,2015-04-27 00:00:00,2021-11-18 00:00:00,22
-81.35402314704629,28.507371224828677,302307000000094,FORT GATLIN RECREATION COMPLEX,2009 LAKE MARGARET DR,ORLANDO,32806,ORANGE,NEIGHBORHOOD PARK / MIXED USE RECREATION,1.0, , , ,ORANGE COUNTY,COUNTY,PUBLIC, ,GEOPLAN,ORLANDOPARKS AND FGDL - STATEWIDE_PARCELS10,28.5073712265,-81.354023147,17RMM6535653460,https://www.google.com/maps/place/17RMM6535653460,154,7.601,FORT GATLIN RECREATION COMPLEX,V,2012-02-02 00:00:00,2021-11-18 00:00:00,24
-81.29632385331563,28.544503345449048,302227000000076,YUCATAN PARK,6400 YUCATAN DR,ORLANDO,32807,ORANGE,NEIGHBORHOOD PARK / DOG PARK,0.0, , , ,CITY OF ORLANDO,MUNICIPALITY,PUBLIC, ,GEOPLAN,ORLANDOPARKS AND FGDL - STATEWIDE_PARCELS10,28.5445033481,-81.2963238543,17RMM7101257558,https://www.google.com/maps/place/17RMM7101257558,160,11.212,YUCATAN PARK,V,2012-02-02 00:00:00,2021-11-18 00:00:00,25
-81.27934068494908,28.57435923854278,302214000000114,ARCADIA ACRES PARK,7768 LADY FRANCES WAY,ORLANDO,32807,ORANGE,NEIGHBORHOOD PARK / ATHLETIC,0.0, , , ,ORANGE COUNTY,COUNTY,PUBLIC, ,GEOPLAN,ORLANDOPARKS AND FGDL - STATEWIDE_PARCELS10,28.5743592393,-81.2793406849,17RMM7268160862,https://www.google.com/maps/place/17RMM7268160862,161,4.559,ARCADIA ACRES PARK,V,2015-04-27 00:00:00,2021-11-18 00:00:00,26
-81.44619195267923,28.59162720125594,292207803200000,SIGNAL HILL PARK,3877 WATCH HILL RD,ORLANDO,32808,ORANGE,NEIGHBORHOOD PARK / MIXED USE RECREATION,0.0, , , ,CITY OF ORLANDO,MUNICIPALITY,PUBLIC, ,GEOPLAN,ORLANDOPARKS AND FGDL - STATEWIDE_PARCELS10,28.591627202,-81.4461919527,17RMM5637162824,https://www.google.com/maps/place/17RMM5637162824,169,5.275,SIGNAL HILL PARK,V,2015-04-27 00:00:00,2021-11-18 00:00:00,28
-81.43574722833384,28.553736366354673,292220000000042,EMERY HAMILTON SPORTS COMPLEX SOCCER AND RUGBY FIELDS,4400 W COLONIAL DR,ORLANDO,32808,ORANGE,NEIGHBORHOOD PARK / ATHLETIC,0.0, , , ,CITY OF ORLANDO,MUNICIPALITY,PUBLIC, ,GEOPLAN,ORLANDOPARKS AND FGDL - STATEWIDE_PARCELS10,28.5537363671,-81.4357472283,17RMM5737758623,https://www.google.com/maps/place/17RMM5737758623,170,31.916,EMERY HAMILTON SPORTS COMPLEX SOCCER AND RUGBY FIELDS,V,2012-02-02 00:00:00,2021-11-18 00:00:00,29
-81.44256551988272,28.563081971508456,292219308600000,BARNETT PARK / BARNETT GYM & BOAT RAMP,4801 W COLONIAL DR,ORLANDO,32808,ORANGE,NEIGHBORHOOD PARK / MIXED USE RECREATION,0.0,OR70018PC, , ,ORANGE COUNTY,COUNTY,PUBLIC,https://public.myfwc.com/LE/boatramp/public/Ramp.aspx?FacilityID=OR70018PC,GEOPLAN,ORLANDOPARKS AND FGDL - STATEWIDE_PARCELS10,28.5630819723,-81.4425655199,17RMM5671459660,https://www.google.com/maps/place/17RMM5671459660,172,187.06,BARNETT PARK / BARNETT GYM & BOAT RAMP,V,2012-02-02 00:00:00,2021-11-18 00:00:00,30
-81.4181172434099,28.63514620942977,292128746408050,RIVERSIDE ACRES,8636 GARNET AVE,ORLANDO,32810,ORANGE,NEIGHBORHOOD PARK / PLAYGROUND,0.0, , , ,ORANGE COUNTY,COUNTY,PUBLIC, ,GEOPLAN,ORLANDOPARKS AND FGDL - STATEWIDE_PARCELS10,28.6351462102,-81.4181172444,17RMM5913367635,https://www.google.com/maps/place/17RMM5913367635,178,8.962,RIVERSIDE ACRES,V,2015-04-27 00:00:00,2021-11-18 00:00:00,31
-81.41481952963,28.601420556661893,292204875300010,TROTTERS PARK,2701 LEE RD,ORLANDO,32810,ORANGE,NEIGHBORHOOD PARK / MIXED USE RECREATION,0.0, , , ,CITY OF ORLANDO,MUNICIPALITY,PUBLIC, ,GEOPLAN,ORLANDOPARKS AND FGDL - STATEWIDE_PARCELS10,28.6014205584,-81.4148195296,17RMM5944263898,https://www.google.com/maps/place/17RMM5944263898,179,55.157,TROTTERS PARK,V,2016-06-17 00:00:00,2021-11-18 00:00:00,32
-81.44791366540025,28.520123125715358,292306226500001,EAGLE NEST PARK,5165 METROWEST BLVD,ORLANDO,32811,ORANGE,NEIGHBORHOOD PARK / MIXED USE RECREATION,0.0, , , ,CITY OF ORLANDO,MUNICIPALITY,PUBLIC, ,GEOPLAN,ORLANDOPARKS AND FGDL - STATEWIDE_PARCELS10,28.5201231265,-81.4479136654,17RMM5617354903,https://www.google.com/maps/place/17RMM5617354903,184,481.251,EAGLE NEST PARK,V,2016-06-17 00:00:00,2021-11-18 00:00:00,33
-81.43696429269473,28.544952458804673,292229000000053,IVEY LANE RECREATION SITE,291 SILVERTON ST,ORLANDO,32811,ORANGE,NEIGHBORHOOD PARK / MIXED USE RECREATION,0.0, , , ,CITY OF ORLANDO,MUNICIPALITY,PUBLIC, ,GEOPLAN,ORLANDOPARKS AND FGDL - STATEWIDE_PARCELS10,28.5449524596,-81.4369642927,17RMM5725457650,https://www.google.com/maps/place/17RMM5725457650,186,11.389,IVEY LANE RECREATION SITE,V,2016-06-17 00:00:00,2021-11-18 00:00:00,34
-81.31178341167231,28.483223553064278,302316163707370,TURNBULL PARK,4941 TURNBULL DR,ORLANDO,32812,ORANGE,NEIGHBORHOOD PARK / MIXED USE RECREATION,0.0, , , ,ORANGE COUNTY,COUNTY,PUBLIC, ,GEOPLAN,ORLANDOPARKS AND FGDL - STATEWIDE_PARCELS10,28.4832235548,-81.3117834116,17RMM6948250773,https://www.google.com/maps/place/17RMM6948250773,191,3.837,TURNBULL PARK,V,2012-02-02 00:00:00,2021-11-18 00:00:00,35
-81.3203107605045,28.497936454331185,302309000000045,BARBER PARK,3701 GATLIN AVE,ORLANDO,32812,ORANGE,NEIGHBORHOOD PARK / DOG PARK,0.0, , , ,ORANGE COUNTY,COUNTY,PUBLIC, ,GEOPLAN,ORLANDOPARKS AND FGDL - STATEWIDE_PARCELS10,28.4979364551,-81.3203107615,17RMM6865252405,https://www.google.com/maps/place/17RMM6865252405,193,66.058,BARBER PARK,V,2012-02-02 00:00:00,2021-11-18 00:00:00,36
-81.23489266158388,28.5806930567984,312217000000074,BLANCHARD PARK AND LITTLE ECON GREENWAY,2451 N DEAN RD,ORLANDO,32817,ORANGE,NEIGHBORHOOD PARK / MIXED USE RECREATION,1.0, , , ,ORANGE COUNTY,COUNTY,PUBLIC, ,GEOPLAN,ORLANDOPARKS AND FGDL - STATEWIDE_PARCELS10,28.5806930576,-81.2348926626,17RMM7703061554,https://www.google.com/maps/place/17RMM7703061554,196,135.871,BLANCHARD PARK AND LITTLE ECON GREENWAY,V,2015-04-27 00:00:00,2021-11-18 00:00:00,37
-81.49864113254978,28.55534281250946,282222893200000,HONOLULU PARK,8200 HONOLULU DR,ORLANDO,32818,ORANGE,NEIGHBORHOOD PARK / PLAYGROUND,0.0, , , ,ORANGE COUNTY,COUNTY,PUBLIC, ,GEOPLAN,ORLANDOPARKS AND FGDL - STATEWIDE_PARCELS10,28.5553428133,-81.4986411325,17RMM5122658824,https://www.google.com/maps/place/17RMM5122658824,197,3.001,HONOLULU PARK,V,2016-06-17 00:00:00,2021-11-18 00:00:00,38
-81.481534488737,28.489954015148285,282314000000001,SHADOW BAY AND LAKE CANE TENNIS CENTER,5100 TURKEY LAKE RD,ORLANDO,32835,ORANGE,NEIGHBORHOOD PARK / MIXED USE RECREATION,0.0, , , ,ORANGE COUNTY,COUNTY,PUBLIC, ,GEOPLAN,ORLANDOPARKS AND FGDL - STATEWIDE_PARCELS10,28.4899540178,-81.4815344897,17RMM5287051574,https://www.google.com/maps/place/17RMM5287051574,198,112.343,SHADOW BAY AND LAKE CANE TENNIS CENTER,V,2012-02-02 00:00:00,2021-11-18 00:00:00,39
-81.10264042388096,28.55947608174901,322222071246003,BITHLO COMMUNITY PARK,18501 WASHINGTON AVE,ORLANDO,32820,ORANGE,NEIGHBORHOOD PARK / ATHLETIC,0.0, , , ,ORANGE COUNTY,COUNTY,PUBLIC, ,GEOPLAN,ORLANDOPARKS AND FGDL - STATEWIDE_PARCELS10,28.5594760825,-81.1026404239,17RMM8996159185,https://www.google.com/maps/place/17RMM8996159185,199,37.883,BITHLO COMMUNITY PARK,V,2012-02-02 00:00:00,2021-11-18 00:00:00,40
-81.29020626975763,28.534370568007596,302235640002440,CAPEHART PARK,715 CAPEHART DR,ORLANDO,32822,ORANGE,NEIGHBORHOOD PARK / MIXED USE RECREATION,1.0, , , ,ORANGE COUNTY,COUNTY,PUBLIC, ,GEOPLAN,ORLANDOPARKS AND FGDL - STATEWIDE_PARCELS10,28.5343705688,-81.2902062708,17RMM7160856434,https://www.google.com/maps/place/17RMM7160856434,200,11.374,CAPEHART PARK,V,2012-02-02 00:00:00,2021-11-18 00:00:00,41
-81.37726565591021,28.397703124359047,292414000000021,SOUTH ORANGE YOUTH SPORTS COMPLEX,11800 S ORANGE AVE,ORLANDO,32824,ORANGE,NEIGHBORHOOD PARK / ATHLETIC,0.0, , , ,ORANGE COUNTY,COUNTY,PUBLIC, ,GEOPLAN,ORLANDOPARKS AND FGDL - STATEWIDE_PARCELS10,28.3977031261,-81.3772656569,17RMM6304341317,https://www.google.com/maps/place/17RMM6304341317,202,33.818,SOUTH ORANGE YOUTH SPORTS COMPLEX,V,2016-06-17 00:00:00,2021-11-18 00:00:00,42
-81.36504916776805,28.427286325320022,292401851651101,TAFT BALL FIELD,1140 5TH ST,ORLANDO,32824,ORANGE,NEIGHBORHOOD PARK / ATHLETIC,0.0, , , ,ORANGE COUNTY,COUNTY,PUBLIC, ,GEOPLAN,ORLANDOPARKS AND FGDL - STATEWIDE_PARCELS10,28.4272863261,-81.3650491678,17RMM6425044591,https://www.google.com/maps/place/17RMM6425044591,203,1.747,TAFT BALL FIELD,V,2012-02-02 00:00:00,2021-11-18 00:00:00,43
-81.37537795774239,28.433269146404125,292336822840102,TAFT PARK,124 CYPRESS ST,ORLANDO,32824,ORANGE,NEIGHBORHOOD PARK / MIXED USE RECREATION,0.0, , , ,ORANGE COUNTY,COUNTY,PUBLIC, ,GEOPLAN,ORLANDOPARKS AND FGDL - STATEWIDE_PARCELS10,28.4332691472,-81.3753779588,17RMM6324045257,https://www.google.com/maps/place/17RMM6324045257,204,0.821,TAFT PARK,V,2016-06-17 00:00:00,2021-11-18 00:00:00,44
-81.38510761599628,28.381316572483456,292423000000005,BEAR CREEK RECREATION COMPLEX,1600 BEAR CROSSING DR,ORLANDO,32824,ORANGE,NEIGHBORHOOD PARK / ATHLETIC,0.0, , , ,ORANGE COUNTY,COUNTY,PUBLIC, ,GEOPLAN,ORLANDOPARKS AND FGDL - STATEWIDE_PARCELS10,28.3813165733,-81.385107616,17RMM6226939504,https://www.google.com/maps/place/17RMM6226939504,205,36.62,BEAR CREEK RECREATION COMPLEX,V,2012-02-02 00:00:00,2021-11-18 00:00:00,45
-81.34440732888466,28.373651502917063,302430000000011,MEADOW WOODS PARK AND ORANGE COUNTY ORLANDO MAGIC RECREATION CENTER,1751 RHODE ISLAND WOODS CIR,ORLANDO,32824,ORANGE,NEIGHBORHOOD PARK / DOG PARK,0.0, , , ,ORANGE COUNTY,COUNTY,PUBLIC, ,GEOPLAN,ORLANDOPARKS AND FGDL - STATEWIDE_PARCELS10,28.3736515037,-81.3444073289,17RMM6625438643,https://www.google.com/maps/place/17RMM6625438643,206,21.322,MEADOW WOODS PARK AND ORANGE COUNTY ORLANDO MAGIC RECREATION CENTER,V,2016-06-17 00:00:00,2021-11-18 00:00:00,46
-81.25866242722616,28.56460887780171,312219000000045,CHENEY HEIGHTS PARK,9305 MAVIS ST,ORLANDO,32825,ORANGE,NEIGHBORHOOD PARK / WALKING PATH,0.0, , , ,ORANGE COUNTY,COUNTY,PUBLIC, ,GEOPLAN,ORLANDOPARKS AND FGDL - STATEWIDE_PARCELS10,28.5646088795,-81.2586624272,17RMM7470159777,https://www.google.com/maps/place/17RMM7470159777,207,9.532,CHENEY HEIGHTS PARK,V,2012-02-02 00:00:00,2021-11-18 00:00:00,47
-81.26203620832662,28.567184817364716,302224229500010,DONNYBROOK PARK,9109 DONNYBROOK DR,ORLANDO,32825,ORANGE,NEIGHBORHOOD PARK / MIXED USE RECREATION,0.0, , , ,ORANGE COUNTY,COUNTY,PUBLIC, ,GEOPLAN,ORLANDOPARKS AND FGDL - STATEWIDE_PARCELS10,28.5671848191,-81.2620362093,17RMM7437260063,https://www.google.com/maps/place/17RMM7437260063,208,2.48,DONNYBROOK PARK,V,2015-04-27 00:00:00,2021-11-18 00:00:00,48
-81.24225415139342,28.566731316532266,312220000000001,DOWNEY PARK,10107 FLOWERS AVE,ORLANDO,32817,ORANGE,NEIGHBORHOOD PARK / MIXED USE RECREATION,1.0, , , ,ORANGE COUNTY,COUNTY,PUBLIC, ,GEOPLAN,ORLANDOPARKS AND FGDL - STATEWIDE_PARCELS10,28.5667313173,-81.2422541524,17RMM7630760009,https://www.google.com/maps/place/17RMM7630760009,209,54.538,DOWNEY PARK,V,2016-06-17 00:00:00,2021-11-18 00:00:00,49
-81.20203837531066,28.56266337481006,312222000000003,EAST ORANGE NEIGHBORHOOD PARK,12050 E COLONIAL DR,ORLANDO,32826,ORANGE,NEIGHBORHOOD PARK / MIXED USE RECREATION,0.0, , , ,ORANGE COUNTY,COUNTY,PUBLIC, ,GEOPLAN,ORLANDOPARKS AND FGDL - STATEWIDE_PARCELS10,28.5626633765,-81.2020383763,17RMM8023959551,https://www.google.com/maps/place/17RMM8023959551,211,41.106,EAST ORANGE NEIGHBORHOOD PARK,V,2012-02-02 00:00:00,2021-11-18 00:00:00,50
-81.25821010111497,28.497453767545,312307000000013,SOUTH ECON COMMUNITY PARK AND RENAISSANCE SENIOR CENTER,3800 S ECONLOCKHATCHEE RD,ORLANDO,32829,ORANGE,NEIGHBORHOOD PARK / MIXED USE RECREATION,0.0, , , ,ORANGE COUNTY,COUNTY,PUBLIC, ,GEOPLAN,ORLANDOPARKS AND FGDL - STATEWIDE_PARCELS10,28.4974537683,-81.2582101011,17RMM7473052337,https://www.google.com/maps/place/17RMM7473052337,212,57.011,SOUTH ECON COMMUNITY PARK AND RENAISSANCE SENIOR CENTER,V,2012-02-02 00:00:00,2021-11-18 00:00:00,51
-81.07373701929245,28.515353892913172,322301759725190,WEDGEFIELD PARK,20425 MANSFIELD ST,ORLANDO,32833,ORANGE,NEIGHBORHOOD PARK / MIXED USE RECREATION,0.0, , , ,ORANGE COUNTY,COUNTY,PUBLIC, ,GEOPLAN,ORLANDOPARKS AND FGDL - STATEWIDE_PARCELS10,28.5153538946,-81.0737370203,17RMM9278554295,https://www.google.com/maps/place/17RMM9278554295,214,7.702,WEDGEFIELD PARK,V,2012-02-02 00:00:00,2021-11-18 00:00:00,52
-81.49659984922761,28.539803470524912,282227000000002,ROSE PLACE PARK,8200 OLD WINTER GARDEN RD,ORLANDO,32835,ORANGE,NEIGHBORHOOD PARK / MIXED USE RECREATION,0.0, , , ,ORANGE COUNTY,COUNTY,PUBLIC, ,GEOPLAN,ORLANDOPARKS AND FGDL - STATEWIDE_PARCELS10,28.5398034722,-81.4965998502,17RMM5141857102,https://www.google.com/maps/place/17RMM5141857102,215,15.972,ROSE PLACE PARK,V,2016-06-17 00:00:00,2021-11-18 00:00:00,53
-81.46560103543734,28.542571629034782,282225000000034,ORLO VISTA PARK,1 N POWERS DR,ORLANDO,32835,ORANGE,NEIGHBORHOOD PARK / MIXED USE RECREATION,0.0, , , ,ORANGE COUNTY,COUNTY,PUBLIC, ,GEOPLAN,ORLANDOPARKS AND FGDL - STATEWIDE_PARCELS10,28.5425716307,-81.4656010354,17RMM5445257397,https://www.google.com/maps/place/17RMM5445257397,216,34.011,ORLO VISTA PARK,V,2015-04-27 00:00:00,2021-11-18 00:00:00,54
-81.53066124957617,28.431412268739603,282405000000013,WEST BEACH PARK,9227 WINTER GARDEN VINELAND RD,ORLANDO,32836,ORANGE,NEIGHBORHOOD PARK / MIXED USE RECREATION,0.0, ,12-00388, ,ORANGE COUNTY,COUNTY,PUBLIC, ,GEOPLAN,ORLANDOPARKS AND FGDL - STATEWIDE_PARCELS10,28.4314122695,-81.5306612506,17RMM4803345108,https://www.google.com/maps/place/17RMM4803345108,217,6.217,WEST BEACH PARK,V,2016-06-17 00:00:00,2021-11-18 00:00:00,55
-81.41811161418124,28.40916679746238,292409181100002,LESTER MANDELL PARK,3500 CENTRAL FLORIDA,ORLANDO,32837,ORANGE,NEIGHBORHOOD PARK / ATHLETIC,0.0, , , ,ORANGE COUNTY,COUNTY,PUBLIC, ,GEOPLAN,ORLANDOPARKS AND FGDL - STATEWIDE_PARCELS10,28.4091667992,-81.4181116142,17RMM5904642600,https://www.google.com/maps/place/17RMM5904642600,218,7.746,LESTER MANDELL PARK,V,2012-02-02 00:00:00,2021-11-18 00:00:00,56
-81.3811858601026,28.479714479993444,292314398000000,BIG OAK PARK,531 KENMORE CIR,ORLANDO,32839,ORANGE,NEIGHBORHOOD PARK / OPEN SPACE,0.0, , , ,ORANGE COUNTY,COUNTY,PUBLIC, ,GEOPLAN,ORLANDOPARKS AND FGDL - STATEWIDE_PARCELS10,28.4797144817,-81.3811858601,17RMM6268850404,https://www.google.com/maps/place/17RMM6268850404,219,1.738,BIG OAK PARK,V,2012-02-02 00:00:00,2021-11-18 00:00:00,57
-81.38715812112078,28.473801341176078,292323000000102,PADGETT PARK,5811 PADGETT CIR,ORLANDO,32839,ORANGE,NEIGHBORHOOD PARK / MIXED USE RECREATION,0.0, , , ,ORANGE COUNTY,COUNTY,PUBLIC, ,GEOPLAN,ORLANDOPARKS AND FGDL - STATEWIDE_PARCELS10,28.4738013447,-81.3871581231,17RMM6210149751,https://www.google.com/maps/place/17RMM6210149751,220,0.677,PADGETT PARK,V,2012-02-02 00:00:00,2021-11-18 00:00:00,58
-81.45268037455683,28.60466773555388,292206584400550,ROLLING HILLS PARK,4950 N PINE HILLS RD,ORLANDO,32808,ORANGE,NEIGHBORHOOD PARK / ATHLETIC,0.0, , , ,ORANGE COUNTY,COUNTY,PUBLIC, ,GEOPLAN,ORLANDOPARKS AND FGDL - STATEWIDE_PARCELS10,28.6046677364,-81.4526803756,17RMM5574264271,https://www.google.com/maps/place/17RMM5574264271,221,9.074,ROLLING HILLS PARK,V,2012-02-02 00:00:00,2021-11-18 00:00:00,59
-81.34992653967309,28.57289968165033,302218056802001,BEEMAN PARK,2301 LAKE SUE DR,ORLANDO,32803,ORANGE,NEIGHBORHOOD PARK / OPEN SPACE,0.0, , , ,ORANGE COUNTY,COUNTY,PUBLIC, ,GEOPLAN,ORLANDOPARKS AND FGDL - STATEWIDE_PARCELS10,28.5728996824,-81.3499265397,17RMM6577860718,https://www.google.com/maps/place/17RMM6577860718,224,1.075,BEEMAN PARK,V,2012-02-02 00:00:00,2021-11-18 00:00:00,61
-81.03744912916994,28.55394887528542,332232000000001,CHRISTMAS CREEK ENVIRONMENTAL PARK,22001 E COLONIAL DR,CHRISTMAS,32709,ORANGE,NATURE PARK,0.0, , , ,ORANGE COUNTY,COUNTY,PUBLIC, ,GEOPLAN,ORLANDOPARKS AND FGDL - STATEWIDE_PARCELS10,28.5539488779,-81.0374491301,17RMM9633758569,https://www.google.com/maps/place/17RMM9633758569,225,890.163,CHRISTMAS CREEK ENVIRONMENTAL PARK,V,2016-06-17 00:00:00,2021-11-18 00:00:00,62
-81.37819016465569,28.491006401634404,292314000000025,CYPRESS GROVE PARK,290 HOLDEN AVE,ORLANDO,32839,ORANGE,NEIGHBORHOOD PARK / MIXED USE RECREATION,0.0, , , ,ORANGE COUNTY,COUNTY,PUBLIC, ,GEOPLAN,ORLANDOPARKS AND FGDL - STATEWIDE_PARCELS10,28.4910064033,-81.3781901646,17RMM6298551654,https://www.google.com/maps/place/17RMM6298551654,226,80.673,CYPRESS GROVE PARK,V,2012-02-02 00:00:00,2021-11-18 00:00:00,63
-81.48920004163696,28.409701836614907,282411000000007,DOCTOR P PHILLIPS COMMUNITY PARK,10415 SMITH BENNETT RD,ORLANDO,32836,ORANGE,NEIGHBORHOOD PARK / MIXED USE RECREATION,0.0, , , ,ORANGE COUNTY,COUNTY,PUBLIC, ,GEOPLAN,ORLANDOPARKS AND FGDL - STATEWIDE_PARCELS10,28.4097018383,-81.4892000416,17RMM5208342686,https://www.google.com/maps/place/17RMM5208342686,227,80.665,DOCTOR P PHILLIPS COMMUNITY PARK,V,2012-02-02 00:00:00,2021-11-18 00:00:00,64
-81.2760224011519,28.573869441295784,302213000000147,ECON SOCCER COMPLEX,8035 YATES RD,ORLANDO,32817,ORANGE,NEIGHBORHOOD PARK / MIXED USE RECREATION,0.0, , , ,ORANGE COUNTY,COUNTY,PUBLIC, ,GEOPLAN,ORLANDOPARKS AND FGDL - STATEWIDE_PARCELS10,28.5738694421,-81.2760224022,17RMM7300660807,https://www.google.com/maps/place/17RMM7300660807,228,94.039,ECON SOCCER COMPLEX,V,2015-04-27 00:00:00,2021-11-18 00:00:00,65
-81.28354969524487,28.609820151574937,302202000000024,GOLDENROD PARK AND ORANGE COUNTY ORLANDO MAGIC RECREATION CENTER,4863 N GOLDENROD RD,WINTER PARK,32792,ORANGE,NEIGHBORHOOD PARK / MIXED USE RECREATION,0.0, , , ,ORANGE COUNTY,COUNTY,PUBLIC, ,GEOPLAN,ORLANDOPARKS AND FGDL - STATEWIDE_PARCELS10,28.6098201533,-81.2835496952,17RMM7227964791,https://www.google.com/maps/place/17RMM7227964791,230,5.987,GOLDENROD PARK AND ORANGE COUNTY ORLANDO MAGIC RECREATION CENTER,V,2012-02-02 00:00:00,2021-11-18 00:00:00,66
-81.33762226758688,28.57567323818247,302217052400178,BLUE JACKET PARK,2501 GENERAL REES AVE,ORLANDO,32814,ORANGE,NEIGHBORHOOD PARK / MIXED USE RECREATION,0.0, , , ,CITY OF ORLANDO,MUNICIPALITY,PUBLIC, ,GEOPLAN,ORLANDOPARKS AND FGDL - STATEWIDE_PARCELS10,28.5756732399,-81.3376222686,17RMM6698261022,https://www.google.com/maps/place/17RMM6698261022,235,61.886,BLUE JACKET PARK,V,2015-04-27 00:00:00,2021-11-18 00:00:00,67
-81.49046270865607,28.580348098365878,282211584401130,SILVER STAR COMMUNITY PARK AND ORANGE COUNTY ORLANDO MAGIC RECREATION CENTER,2801 N APOPKA VINELAND RD,ORLANDO,32818,ORANGE,NEIGHBORHOOD PARK / PLAYGROUND,0.0, , , ,ORANGE COUNTY,COUNTY,PUBLIC, ,GEOPLAN,ORLANDOPARKS AND FGDL - STATEWIDE_PARCELS10,28.5803481001,-81.4904627086,17RMM5203761591,https://www.google.com/maps/place/17RMM5203761591,238,21.754,SILVER STAR COMMUNITY PARK AND ORANGE COUNTY ORLANDO MAGIC RECREATION CENTER,V,2012-02-02 00:00:00,2021-11-18 00:00:00,69
-81.04107850795572,28.541027377611307,332229000000002,EAST ORANGE DISTRICT PARK,22001 E COLONIAL DR,CHRISTMAS,32709,ORANGE,NATURE PARK,0.0, , , ,ORANGE COUNTY,COUNTY,PUBLIC, ,GEOPLAN,ORLANDOPARKS AND FGDL - STATEWIDE_PARCELS10,28.5410273793,-81.0410785079,17RMM9598157138,https://www.google.com/maps/place/17RMM9598157138,239,242.781,EAST ORANGE DISTRICT PARK,V,2012-02-02 00:00:00,2021-11-18 00:00:00,70
-81.5580105127717,28.536900567599368,282231000000045,WARRIOR PARK,WINDERMERE RD & WARRIOR RD,WINTER GARDEN,34787,ORANGE,NEIGHBORHOOD PARK / OPEN SPACE,0.0, , , ,CITY OF WINTER GARDEN,MUNICIPALITY,PUBLIC, ,GEOPLAN,ORLANDOPARKS AND FGDL - STATEWIDE_PARCELS10,28.5369005693,-81.5580105138,17RMM4540956807,https://www.google.com/maps/place/17RMM4540956807,240,5.195,WARRIOR PARK,V,2012-02-02 00:00:00,2021-11-18 00:00:00,71
-81.33957655567701,28.625495543734875,302132000000031,HOWELL BRANCH PRESERVE,1205 HOWELL BRANCH RD,WINTER PARK,32789,ORANGE,NATURE PARK / PRESERVE,0.0, , , ,CITY OF WINTER PARK,MUNICIPALITY,PUBLIC, ,GEOPLAN,ORLANDOPARKS AND FGDL - STATEWIDE_PARCELS10,28.6254955454,-81.3395765557,17RMM6680766542,https://www.google.com/maps/place/17RMM6680766542,246,10.517,HOWELL BRANCH PRESERVE,V,2016-06-17 00:00:00,2021-11-18 00:00:00,72
-80.88186343973999,28.763388616664717,20G3437RQA,PARRISH PARK,4055 MAGOON AVE,MIMS,32754,BREVARD,NEIGHBORHOOD PARK / ATHLETIC,0.0, , , ,BREVARD COUNTY,COUNTY,PUBLIC, ,BREVARD COUNTY,BREVARD_PARKS_POLY,28.7633886184,-80.8818634397,17RNM1153381777,https://www.google.com/maps/place/17RNM1153381777,262,16.15,PARRISH PARK,V,2015-04-27 00:00:00,2021-11-18 00:00:00,75
-80.83867483543459,28.661760343648837,21351700791,CUYLER PARK,2329 HARRY T MOORE AVE,MIMS,32754,BREVARD,NEIGHBORHOOD PARK / OPEN SPACE,0.0, , , ,BREVARD COUNTY,COUNTY,PUBLIC, ,BREVARD COUNTY,BREVARD_PARKS_POLY,28.6617603444,-80.8386748354,17RNM1576470523,https://www.google.com/maps/place/17RNM1576470523,265,8.985,CUYLER PARK,V,2018-09-17 00:00:00,2021-11-18 00:00:00,78
-80.84543326903193,28.65461360357046,21352000270,HARRY AND HARRIET MOORE MEMORIAL PARK,2180 FREEDOM AVE,MIMS,32754,BREVARD,NEIGHBORHOOD PARK,0.0, , , ,BREVARD COUNTY,COUNTY,PUBLIC, ,BREVARD COUNTY,BREVARD_PARKS_POLY,28.6546136053,-80.84543327,17RNM1510569731,https://www.google.com/maps/place/17RNM1510569731,266,9.684,HARRY AND HARRIET MOORE MEMORIAL PARK,V,2016-06-17 00:00:00,2021-11-18 00:00:00,79
-80.85892729414368,28.657174995012227,21351900250,HOLDER PARK,2650 GLENDALE BLVD,MIMS,32754,BREVARD,NEIGHBORHOOD PARK / ATHLETIC,0.0, , , ,BREVARD COUNTY,COUNTY,PUBLIC, ,BREVARD COUNTY,BREVARD_PARKS_POLY,28.6571749958,-80.8589272941,17RNM1378670013,https://www.google.com/maps/place/17RNM1378670013,267,42.228,HOLDER PARK,V,2015-04-27 00:00:00,2021-11-18 00:00:00,80
-80.86332728189417,28.647758015877848,21351900504,SHERWOOD PARK,1845 ROBIN HOOD AVE,TITUSVILLE,32796,BREVARD,NEIGHBORHOOD PARK / OPEN SPACE,0.0, , , ,BREVARD COUNTY,COUNTY,PUBLIC, ,BREVARD COUNTY,BREVARD_PARKS_POLY,28.6477580167,-80.8633272829,17RNM1335768969,https://www.google.com/maps/place/17RNM1335768969,268,3.819,SHERWOOD PARK,V,2016-06-17 00:00:00,2021-11-18 00:00:00,81
-80.81142377996798,28.622240064432656,21353400501,ANDREW JACKSON MARINA PARK,501 MARINA RD,TITUSVILLE,32796,BREVARD,NEIGHBORHOOD PARK / ATHLETIC,0.0,N/A, , ,CITY OF TITUSVILLE,MUNICIPALITY,PUBLIC, ,BREVARD COUNTY,BREVARD_PARKS_POLY,28.6222400652,-80.81142378,17RNM1843466149,https://www.google.com/maps/place/17RNM1843466149,269,21.561,ANDREW JACKSON MARINA PARK,V,2012-02-02 00:00:00,2021-11-18 00:00:00,82
-80.80594482271856,28.61749395283017,21353400501,SAND POINT PARK,101 N WASHINGTON AVE,TITUSVILLE,32796,BREVARD,NEIGHBORHOOD PARK / ATHLETIC,0.0,N/A,12-00196, ,CITY OF TITUSVILLE,MUNICIPALITY,PUBLIC, ,BREVARD COUNTY,BREVARD_PARKS_POLY,28.6174939554,-80.8059448237,17RNM1897065624,https://www.google.com/maps/place/17RNM1897065624,272,29.201,SAND POINT PARK,V,2012-02-02 00:00:00,2021-11-18 00:00:00,83
-80.78161977811033,28.504209808507063,233512001,MANATEE HAMMOCK PARK,7275 US HWY 1,TITUSVILLE,32780,BREVARD,NATURE PARK / CAMPGROUND,1.0,N/A, , ,BREVARD COUNTY,COUNTY,PUBLIC, ,BREVARD COUNTY,BREVARD_PARKS_POLY,28.5042098102,-80.7816197791,17RNM2137153078,https://www.google.com/maps/place/17RNM2137153078,285,25.721,MANATEE HAMMOCK PARK,V,2012-02-02 00:00:00,2021-11-18 00:00:00,88
-80.77347301823524,28.480014468212932,23351375311,FRIENDSHIP PARK,1055 BARCLAY DR,COCOA,32927,BREVARD,NEIGHBORHOOD PARK / MIXED USE RECREATION,0.0, , , ,BREVARD COUNTY,COUNTY,PUBLIC, ,BREVARD COUNTY,BREVARD_PARKS_POLY,28.4800144699,-80.7734730182,17RNM2217350399,https://www.google.com/maps/place/17RNM2217350399,286,0.974,FRIENDSHIP PARK,V,2016-06-17 00:00:00,2021-11-18 00:00:00,89
-80.7679535894319,28.477074236007613,233618BH10641,ROBERT NICOL PARK,6660 N HWY 1,COCOA,32927,BREVARD,NEIGHBORHOOD PARK / MIXED USE RECREATION,0.0, , , ,BREVARD COUNTY,COUNTY,PUBLIC, ,BREVARD COUNTY,BREVARD_PARKS_POLY,28.4770742377,-80.7679535894,17RNM2271450074,https://www.google.com/maps/place/17RNM2271450074,287,4.485,ROBERT NICOL PARK,V,2015-04-27 00:00:00,2021-11-18 00:00:00,90
-80.79925988294985,28.46968493126815,233523JM1038,FAY PARK,6315 DEPOT AVE,COCOA,32927,BREVARD,NEIGHBORHOOD PARK / ATHLETIC,0.0, , , ,BREVARD COUNTY,COUNTY,PUBLIC, ,BREVARD COUNTY,BREVARD_PARKS_POLY,28.4696849321,-80.7992598829,17RNM1965149250,https://www.google.com/maps/place/17RNM1965149250,288,11.077,FAY PARK,V,2015-04-27 00:00:00,2021-11-18 00:00:00,91
-80.8344638820067,28.46023519628848,23352800251,FAY LAKE WILDERNESS PARK,6300 FAY BLVD,COCOA,32927,BREVARD,NATURE PARK,0.0,N/A, , ,BREVARD COUNTY,COUNTY,PUBLIC, ,BREVARD COUNTY,BREVARD_PARKS_POLY,28.4602351971,-80.834463882,17RNM1620648198,https://www.google.com/maps/place/17RNM1620648198,289,164.458,FAY LAKE WILDERNESS PARK,V,2012-02-02 00:00:00,2021-11-18 00:00:00,92
-80.77558666690936,28.438571275243266,233536004,SPACE COAST COMMUNITY SPORTS COMPLEX,662 CANAVERAL GROVES BLVD,COCOA,32927,BREVARD,NEIGHBORHOOD PARK / ATHLETIC,0.0, , , ,BREVARD COUNTY,COUNTY,PUBLIC, ,BREVARD COUNTY,BREVARD_PARKS_POLY,28.438571276,-80.7755866669,17RNM2197545807,https://www.google.com/maps/place/17RNM2197545807,292,199.923,SPACE COAST COMMUNITY SPORTS COMPLEX,V,2015-04-27 00:00:00,2021-11-18 00:00:00,95
-80.7644183207294,28.43850215700158,23363100773,BERNICE G JACKSON PARK,4201 HIGHWAY 1 N,COCOA,32927,BREVARD,NEIGHBORHOOD PARK,0.0, , , ,BREVARD COUNTY,COUNTY,PUBLIC, ,BREVARD COUNTY,BREVARD_PARKS_POLY,28.4385021587,-80.7644183217,17RNM2306945802,https://www.google.com/maps/place/17RNM2306945802,293,20.329,BERNICE G JACKSON PARK,V,2015-04-27 00:00:00,2021-11-18 00:00:00,96
-80.6761107484807,28.432023383197855,243612003,DOLPHIN PARK,SAND RIDGE DR,MERRITT ISLAND,32953,BREVARD,NATURE PARK,0.0, , , ,BREVARD COUNTY,COUNTY,PUBLIC, ,BREVARD COUNTY,BREVARD_PARKS_POLY,28.4320233903,-80.6761107493,17RNM3171845104,https://www.google.com/maps/place/17RNM3171845104,294,12.877,DOLPHIN PARK,V,2012-02-02 00:00:00,2021-11-18 00:00:00,97
-80.7130285566495,28.43173187321637,243603001,MITCHELL ELLINGTON PARK,4110 N TROPICAL TRL,MERRITT ISLAND,32953,BREVARD,NEIGHBORHOOD PARK / ATHLETIC,0.0, ,12-00444, ,BREVARD COUNTY,COUNTY,PUBLIC, ,BREVARD COUNTY,BREVARD_PARKS_POLY,28.431731874,-80.7130285566,17RNM2810345063,https://www.google.com/maps/place/17RNM2810345063,295,114.456,MITCHELL ELLINGTON PARK,V,2012-02-02 00:00:00,2021-11-18 00:00:00,98
-80.77803873475452,28.43311936425583,23353600751,PORT STAINT JOHN SOCCER CLUB,660 CANAVERAL GROVES BLVD,COCOA,32927,BREVARD,NEIGHBORHOOD PARK / MIXED USE RECREATION,0.0, , , ,BREVARD COUNTY,COUNTY,PUBLIC, ,BREVARD COUNTY,BREVARD_PARKS_POLY,28.433119365,-80.7780387348,17RNM2173645203,https://www.google.com/maps/place/17RNM2173645203,297,5.272,PORT STAINT JOHN SOCCER CLUB,V,2015-04-27 00:00:00,2021-11-18 00:00:00,99
-80.59365217698468,28.4068412313722,24371000765,JETTY PARK,400 JETTY PARK DR,CAPE CANAVERAL,32920,BREVARD,NEIGHBORHOOD PARK / MIXED USE RECREATION,0.0,N/A,12-00062, ,CANAVERAL PORT AUTHORITY,PORT AUTHORITY,PUBLIC, ,GEOPLAN,BREVARD_PARKS_POLY,28.4068412331,-80.593652177,17RNM3980242339,https://www.google.com/maps/place/17RNM3980242339,299,47.987,JETTY PARK,V,2015-04-27 00:00:00,2021-11-18 00:00:00,101
-80.66630990657167,28.39994088547472,243718004,KELLY PARK WEST,2455 N BANANA RIVER DR,MERRITT ISLAND,32952,BREVARD,NEIGHBORHOOD PARK / MIXED USE RECREATION,0.0, , , ,BREVARD COUNTY,COUNTY,PUBLIC, ,BREVARD COUNTY,BREVARD_PARKS_POLY,28.3999408872,-80.6663099065,17RNM3268741552,https://www.google.com/maps/place/17RNM3268741552,301,38.965,KELLY PARK WEST,V,2012-02-02 00:00:00,2021-11-18 00:00:00,103
-80.70514864776702,28.372695344557233,24362600257,PINEVIEW PARK,200 MELBOURNE AVE,MERRITT ISLAND,32953,BREVARD,NEIGHBORHOOD PARK / PLAYGROUND,0.0, , , ,BREVARD COUNTY,COUNTY,PUBLIC, ,BREVARD COUNTY,BREVARD_PARKS_POLY,28.3726953463,-80.7051486488,17RNM2889038524,https://www.google.com/maps/place/17RNM2889038524,308,1.77,PINEVIEW PARK,V,2012-02-02 00:00:00,2021-11-18 00:00:00,105
-80.68556110451087,28.368399893912084,24362551P,WATTS PARK,695 NEEDLE BLVD,MERRITT ISLAND,32953,BREVARD,NEIGHBORHOOD PARK / MIXED USE RECREATION,0.0,N/A, , ,BREVARD COUNTY,COUNTY,PUBLIC, ,BREVARD COUNTY,BREVARD_PARKS_POLY,28.3683998947,-80.6855611045,17RNM3081138053,https://www.google.com/maps/place/17RNM3081138053,309,2.117,WATTS PARK,V,2012-02-02 00:00:00,2021-11-18 00:00:00,106
-80.85950489648636,28.363883457992834,24353000500,F BURTON SMITH REGIONAL PARK,7575 US HIGHWAY 520,COCOA,32926,BREVARD,NATURE PARK,0.0,N/A,12-00293, ,BREVARD COUNTY,COUNTY,PUBLIC, ,BREVARD COUNTY,BREVARD_PARKS_POLY,28.3638834597,-80.8595048965,17RNM1376737521,https://www.google.com/maps/place/17RNM1376737521,310,184.913,F BURTON SMITH REGIONAL PARK,V,2012-02-02 00:00:00,2021-11-18 00:00:00,107
-80.67680654439067,28.360777130465383,243625001,KIWANIS ISLAND PARK & BOAT RAMP,951 KIWANIS ISLAND PARK RD,MERRITT ISLAND,32952,BREVARD,NEIGHBORHOOD PARK / MIXED USE RECREATION,0.0,BV00307HB, , ,BREVARD COUNTY,COUNTY,PUBLIC,https://public.myfwc.com/LE/boatramp/public/Ramp.aspx?FacilityID=BV00307HB,BREVARD COUNTY,BREVARD_PARKS_POLY,28.3607771313,-80.6768065444,17RNM3167137211,https://www.google.com/maps/place/17RNM3167137211,312,25.782,KIWANIS ISLAND PARK & BOAT RAMP,V,2015-04-27 00:00:00,2021-11-18 00:00:00,108
-80.7787161496676,28.35094116111291,24353600752,COCOA WEST RECREATION COMPLEX,230 S BURNETT RD,COCOA,32926,BREVARD,NEIGHBORHOOD PARK / MIXED USE RECREATION,0.0, , , ,BREVARD COUNTY,COUNTY,PUBLIC, ,BREVARD COUNTY,BREVARD_PARKS_POLY,28.3509411619,-80.7787161497,17RNM2168636099,https://www.google.com/maps/place/17RNM2168636099,318,19.231,COCOA WEST RECREATION COMPLEX,V,2012-02-02 00:00:00,2021-11-18 00:00:00,110
-80.68300447781361,28.3510624871497,24363600716,VETERANS MEMORIAL PARK,400 S SYKES CREEK PKY,MERRITT ISLAND,32952,BREVARD,NEIGHBORHOOD PARK,0.0, , , ,BREVARD COUNTY,COUNTY,PUBLIC, ,BREVARD COUNTY,BREVARD_PARKS_POLY,28.351062488,-80.6830044788,17RNM3106636133,https://www.google.com/maps/place/17RNM3106636133,319,3.881,VETERANS MEMORIAL PARK,V,2016-06-17 00:00:00,2021-11-18 00:00:00,111
-80.74530510895912,28.31290744305991,25361703P,SILVER PINES PARK,1045 NOREEN BLVD,ROCKLEDGE,32955,BREVARD,NEIGHBORHOOD PARK / MIXED USE RECREATION,0.0, , , ,BREVARD COUNTY,COUNTY,PUBLIC, ,BREVARD COUNTY,BREVARD_PARKS_POLY,28.3129074448,-80.74530511,17RNM2497031892,https://www.google.com/maps/place/17RNM2497031892,325,4.476,SILVER PINES PARK,V,2015-04-27 00:00:00,2021-11-18 00:00:00,113
-80.72802037673458,28.252225589564887,26360401A,VIERA REGIONAL PARK,2300 JUDGE FRAN JAMIESON WAY,MELBOURNE,32940,BREVARD,NATURE PARK,0.0, , , ,BREVARD COUNTY,COUNTY,PUBLIC, ,BREVARD COUNTY,BREVARD_PARKS_POLY,28.2522255904,-80.7280203767,17RNM2667925173,https://www.google.com/maps/place/17RNM2667925173,328,117.672,VIERA REGIONAL PARK,V,2016-06-17 00:00:00,2021-11-18 00:00:00,115
-80.67198772660407,28.229837856456605,263612DE41,ROTARY PARK AT SUNTREE,6495 US HWY 1,ROCKLEDGE,32955,BREVARD,NEIGHBORHOOD PARK / MIXED USE RECREATION,0.0, , , ,BREVARD COUNTY,COUNTY,PUBLIC, ,BREVARD COUNTY,BREVARD_PARKS_POLY,28.2298378573,-80.6719877276,17RNM3218222707,https://www.google.com/maps/place/17RNM3218222707,330,10.433,ROTARY PARK AT SUNTREE,V,2012-02-02 00:00:00,2021-11-18 00:00:00,116
-80.60347938875931,28.204417228479205,26372300501,SOUTH PATRICK COMMUNITY PARK,249 SEA PARK BLVD,SATELLITE BEACH,32937,BREVARD,NEIGHBORHOOD PARK / MIXED USE RECREATION,0.0, , , ,BREVARD COUNTY,COUNTY,PUBLIC, ,BREVARD COUNTY,BREVARD_PARKS_POLY,28.2044172302,-80.6034793898,17RNM3891319911,https://www.google.com/maps/place/17RNM3891319911,332,8.906,SOUTH PATRICK COMMUNITY PARK,V,2012-02-02 00:00:00,2021-11-18 00:00:00,118
-80.60221397466044,28.16290000636463,27370200525,DESOTO RECREATION COMPLEX PARK,499 DESOTO PARKWAY,SATELLITE BEACH,32937,BREVARD,NEIGHBORHOOD PARK / ATHLETIC,0.0, , , ,CITY OF SATELLITE BEACH,MUNICIPALITY,PUBLIC, ,BREVARD COUNTY,BREVARD_PARKS_POLY,28.1629000072,-80.6022139747,17RNM3905315312,https://www.google.com/maps/place/17RNM3905315312,335,14.917,DESOTO RECREATION COMPLEX PARK,V,2016-06-17 00:00:00,2021-11-18 00:00:00,121
-80.59715931654014,28.159324709402416,27370200751,SATELLITE BEACH SPORTS AND RECREATION PARK,750 JAMAICA BLVD,SATELLITE BEACH,32937,BREVARD,NEIGHBORHOOD PARK / MIXED USE RECREATION,0.0, , , ,BREVARD COUNTY,COUNTY,PUBLIC, ,GEOPLAN,BREVARD_PARKS_POLY,28.1593247102,-80.5971593165,17RNM3955014917,https://www.google.com/maps/place/17RNM3955014917,336,34.902,SATELLITE BEACH SPORTS AND RECREATION PARK,V,2015-04-27 00:00:00,2021-11-18 00:00:00,122
-80.65692343293055,28.090140648145724,27373100750,ERNA NIXON PARK,1200 EVANS RD,MELBOURNE,32904,BREVARD,NATURE PARK,0.0, , , ,BREVARD COUNTY,COUNTY,PUBLIC, ,BREVARD COUNTY,BREVARD_PARKS_POLY,28.0901406489,-80.6569234329,17RNM3370407235,https://www.google.com/maps/place/17RNM3370407235,344,53.248,ERNA NIXON PARK,V,2016-06-17 00:00:00,2021-11-18 00:00:00,124
-80.67190908376385,28.077042595388974,28370475A,CROSSROADS PARK,MINTON RD & HELEN ST,MELBOURNE,32904,BREVARD,NEIGHBORHOOD PARK / OPEN SPACE,0.0, , , ,BREVARD COUNTY,COUNTY,PUBLIC, ,BREVARD COUNTY,BREVARD_PARKS_POLY,28.0770425962,-80.6719090838,17RNM3223605780,https://www.google.com/maps/place/17RNM3223605780,349,3.094,CROSSROADS PARK,V,2016-06-17 00:00:00,2021-11-18 00:00:00,129
-80.66969448039339,28.072800278282642,28370600518,BRYANT ADAMS PARK,2285 MINTON RD,MELBOURNE,32904,BREVARD,NEIGHBORHOOD PARK / MIXED USE RECREATION,0.0, , , ,CITY OF WEST MELBOURNE,MUNICIPALITY,PUBLIC, ,BREVARD COUNTY,BREVARD_PARKS_POLY,28.07280028,-80.6696944804,17RNM3245505311,https://www.google.com/maps/place/17RNM3245505311,350,4.275,BRYANT ADAMS PARK,V,2012-02-02 00:00:00,2021-11-18 00:00:00,130
-80.55286815329544,28.05489468617734,28381700250,FLUTIE ATHLETIC COMPLEX,2101 OAK ST,MELBOURNE BEACH,32951,BREVARD,NEIGHBORHOOD PARK / ATHLETIC,0.0, , , ,BREVARD COUNTY,COUNTY,PUBLIC, ,BREVARD COUNTY,BREVARD_PARKS_POLY,28.0548946879,-80.5528681543,17RNM4394103364,https://www.google.com/maps/place/17RNM4394103364,356,37.029,FLUTIE ATHLETIC COMPLEX,V,2012-02-02 00:00:00,2021-11-18 00:00:00,132
-80.49845946509288,27.85139464198181,303823007631,MICCO PARK,9655 RIVERVIEW DR,SEBASTIAN,32976,BREVARD,NEIGHBORHOOD PARK / ATHLETIC,0.0, , , ,BREVARD COUNTY,COUNTY,PUBLIC, ,BREVARD COUNTY,BREVARD_PARKS_POLY,27.8513946428,-80.4984594651,17RNL4938180842,https://www.google.com/maps/place/17RNL4938180842,369,9.886,MICCO PARK,V,2016-06-17 00:00:00,2021-11-18 00:00:00,133
-80.66270754923217,28.435274099315752,NONE,KARS PARK,E HALL RD,MERRITT ISLAND,32953,BREVARD,NEIGHBORHOOD PARK / ATHLETIC,0.0, , , ,BREVARD COUNTY,COUNTY,PUBLIC, ,BREVARD COUNTY,BREVARD_PARKS_POLY,28.4352741001,-80.6627075503,17RNM3302945468,https://www.google.com/maps/place/17RNM3302945468,371,26.495,KARS PARK,V,2012-02-02 00:00:00,2021-11-18 00:00:00,135
-81.4163057223371,29.461271326484344,1812295550000600010,HIDDEN TRAILS COMMUNITY CENTER PARK,6108 MAHOGANY BLVD,BUNNELL,32110,FLAGLER,NEIGHBORHOOD PARK / MIXED USE RECREATION,0.0, , , ,FLAGLER COUNTY,COUNTY,PUBLIC, ,FLAGLER COUNTY,FLAGLER_PARKS_POLY,29.4612713282,-81.4163057223,17RMN5963359164,https://www.google.com/maps/place/17RMN5963359164,373,19.116,HIDDEN TRAILS COMMUNITY CENTER PARK,V,2012-02-02 00:00:00,2021-11-18 00:00:00,137
-81.31070417126148,29.503863133486327,3111300000010100010,FLAGER COUNTY ESPANOLA PLAYGROUND,3570 CR 205,BUNNELL,32110,FLAGLER,NEIGHBORHOOD PARK / MIXED USE RECREATION,0.0, , , ,FLAGLER COUNTY,COUNTY,PUBLIC, ,FLAGLER COUNTY,FLAGLER_PARKS_POLY,29.5038631343,-81.3107041713,17RMN6988563852,https://www.google.com/maps/place/17RMN6988563852,374,12.123,FLAGER COUNTY ESPANOLA PLAYGROUND,V,2016-06-17 00:00:00,2021-11-18 00:00:00,138
-81.1712665963687,29.529343206881812,2211310000020200020,GRAND HAVEN PARK,COLBERT LN,PALM COAST,32137,FLAGLER,NATURE PARK,0.0, , , ,FLAGLER COUNTY,COUNTY,PUBLIC, ,FLAGLER COUNTY,FLAGLER_PARKS_POLY,29.5293432086,-81.1712665963,17RMN8340466647,https://www.google.com/maps/place/17RMN8340466647,381,48.456,GRAND HAVEN PARK,V,2015-04-27 00:00:00,2021-11-18 00:00:00,141
-81.43901260549141,28.275656894100276,292529470000011130,OREN BROWN PARK,3511 BAKER DR,KISSIMMEE,34741,OSCEOLA,NEIGHBORHOOD PARK / ATHLETIC,0.0, , , ,OSCEOLA COUNTY,COUNTY,PUBLIC, ,OSCEOLA COUNTY,OSCEOLA_PARKS_POLY,28.2756568949,-81.4390126055,17RMM5694527817,https://www.google.com/maps/place/17RMM5694527817,386,24.27,OREN BROWN PARK,V,2015-04-27 00:00:00,2021-11-18 00:00:00,143
-81.40440597976664,28.29075615722641,27252900U000100000,KISSIMMEE LAKE FRONT PARK,100 LAKESHORE BLVD,KISSIMMEE,34741,OSCEOLA,NEIGHBORHOOD PARK / MIXED USE RECREATION,0.0,N/A, , ,CITY OF KISSIMMEE,MUNICIPALITY,PUBLIC, ,OSCEOLA COUNTY,OSCEOLA_PARKS_POLY,28.2907561589,-81.4044059808,17RMM6034529478,https://www.google.com/maps/place/17RMM6034529478,392,21.996,KISSIMMEE LAKE FRONT PARK,FNV,2015-04-27 00:00:00,2021-11-18 00:00:00,144
-81.40058055638364,28.314786351618814,15252900U001050000,KISSIMMEE CITY HALL PARK,2380 SMITH ST,KISSIMMEE,34744,OSCEOLA,NEIGHBORHOOD PARK / ATHLETIC,0.0, , , ,CITY OF KISSIMMEE,MUNICIPALITY,PUBLIC, ,OSCEOLA COUNTY,OSCEOLA_PARKS_POLY,28.3147863533,-81.4005805574,17RMM6072932139,https://www.google.com/maps/place/17RMM6072932139,394,3.478,KISSIMMEE CITY HALL PARK,V,2012-02-02 00:00:00,2021-11-18 00:00:00,145
-81.39538578247404,28.334662109992568,022529408000590150,MARYDIA NEIGHBORHOOD PARK,2942 TAMPA AVE,KISSIMMEE,34744,OSCEOLA,NEIGHBORHOOD PARK / MIXED USE RECREATION,0.0, , , ,OSCEOLA COUNTY,COUNTY,PUBLIC, ,OSCEOLA COUNTY,OSCEOLA_PARKS_POLY,28.3346621117,-81.3953857825,17RMM6124534339,https://www.google.com/maps/place/17RMM6124534339,396,0.574,MARYDIA NEIGHBORHOOD PARK,V,2016-06-17 00:00:00,2021-11-18 00:00:00,146
-81.41082908689324,28.330874935412403,0925295310000100C0,TROPICAL NEIGHBORHOOD PARK,994 W TROPICANA CT,KISSIMMEE,34741,OSCEOLA,NEIGHBORHOOD PARK / ATHLETIC,0.0, , , ,OSCEOLA COUNTY,COUNTY,PUBLIC, ,OSCEOLA COUNTY,OSCEOLA_PARKS_POLY,28.3308749362,-81.4108290869,17RMM5973033924,https://www.google.com/maps/place/17RMM5973033924,397,0.621,TROPICAL NEIGHBORHOOD PARK,V,2015-04-27 00:00:00,2021-11-18 00:00:00,147
-81.34537796458402,28.339843181507614,0625302907000100B0,WATERSEDGE NEIGHBORHOOD PARK,N WATERS EDGE DR & BLACKWATER CT,KISSIMMEE,34743,OSCEOLA,NEIGHBORHOOD PARK / PLAYGROUND,0.0, , , ,OSCEOLA COUNTY,COUNTY,PUBLIC, ,OSCEOLA COUNTY,OSCEOLA_PARKS_POLY,28.3398431832,-81.3453779656,17RMM6614934898,https://www.google.com/maps/place/17RMM6614934898,398,1.029,WATERSEDGE NEIGHBORHOOD PARK,V,2016-06-17 00:00:00,2021-11-18 00:00:00,148
-81.35282751537076,28.33330615754195,072530270301140380,BUENAVENTURA COMMUNITY PARK,419 BUENAVENTURA BLVD,KISSIMMEE,34743,OSCEOLA,NEIGHBORHOOD PARK / ATHLETIC,0.0, , , ,OSCEOLA COUNTY,COUNTY,PUBLIC, ,OSCEOLA COUNTY,OSCEOLA_PARKS_POLY,28.3333061593,-81.3528275164,17RMM6541634176,https://www.google.com/maps/place/17RMM6541634176,399,10.12,BUENAVENTURA COMMUNITY PARK,V,2016-06-17 00:00:00,2021-11-18 00:00:00,149
-81.35441888504029,28.334856816381393,062530000000570000,ARCHIE GORDON MEMORIAL PARK,419 BUENAVENTURA BLVD,KISSIMMEE,34743,OSCEOLA,NEIGHBORHOOD PARK / ATHLETIC,0.0, , , ,OSCEOLA COUNTY,COUNTY,PUBLIC, ,OSCEOLA COUNTY,OSCEOLA_PARKS_POLY,28.3348568181,-81.354418885,17RMM6526134348,https://www.google.com/maps/place/17RMM6526134348,401,13.294,ARCHIE GORDON MEMORIAL PARK,V,2012-02-02 00:00:00,2021-11-18 00:00:00,150
-81.27754536731727,28.330440824713854,112530000000100000,AUSTIN TINDALL REGIONAL PARK,4100 BOGGY CREEK RD,KISSIMMEE,34744,OSCEOLA,NEIGHBORHOOD PARK / ATHLETIC,0.0, , , ,OSCEOLA COUNTY,COUNTY,PUBLIC, ,OSCEOLA COUNTY,OSCEOLA_PARKS_POLY,28.3304408255,-81.2775453683,17RMM7279533839,https://www.google.com/maps/place/17RMM7279533839,404,97.01,AUSTIN TINDALL REGIONAL PARK,V,2015-04-27 00:00:00,2021-11-18 00:00:00,151
-81.33896344017332,28.324479727489216,0725302675000N0000,ROYAL PALM NEIGHBORHOOD PARK,156 TURPIN LN,KISSIMMEE,34743,OSCEOLA,NEIGHBORHOOD PARK / ATHLETIC,0.0, , , ,OSCEOLA COUNTY,COUNTY,PUBLIC, ,OSCEOLA COUNTY,OSCEOLA_PARKS_POLY,28.3244797292,-81.3389634412,17RMM6677333194,https://www.google.com/maps/place/17RMM6677333194,405,1.234,ROYAL PALM NEIGHBORHOOD PARK,V,2012-02-02 00:00:00,2021-11-18 00:00:00,152
-81.34071873585066,28.302334455862653,172530315000050110,FORTUNE ROAD ATHLETIC COMPLEX,2500 FORTUNE RD,KISSIMMEE,34744,OSCEOLA,NEIGHBORHOOD PARK / ATHLETIC,0.0, , , ,CITY OF KISSIMMEE,MUNICIPALITY,PUBLIC, ,OSCEOLA COUNTY,OSCEOLA_PARKS_POLY,28.3023344567,-81.3407187359,17RMM6659430741,https://www.google.com/maps/place/17RMM6659430741,408,36.251,FORTUNE ROAD ATHLETIC COMPLEX,V,2016-06-17 00:00:00,2021-11-18 00:00:00,153
-81.32906598950574,28.25371295975907,052630521000080080,PARTIN TRIANGLE PARK,2830 NEPTUNE RD,KISSIMMEE,34744,OSCEOLA,NEIGHBORHOOD PARK / MIXED USE RECREATION,0.0,N/A, , ,OSCEOLA COUNTY,COUNTY,PUBLIC, ,OSCEOLA COUNTY,OSCEOLA_PARKS_POLY,28.2537129606,-81.3290659905,17RMM6772125352,https://www.google.com/maps/place/17RMM6772125352,412,7.256,PARTIN TRIANGLE PARK,V,2012-02-02 00:00:00,2021-11-18 00:00:00,154
-81.2505236865266,28.277152237783817,292531491000610010,RALPH V CHISHOLM REGIONAL PARK,4700 CHISHOLM PARK TRL,ST CLOUD,34771,OSCEOLA,NEIGHBORHOOD PARK / MIXED USE RECREATION,1.0, , , ,OSCEOLA COUNTY,COUNTY,PUBLIC, ,OSCEOLA COUNTY,OSCEOLA_PARKS_POLY,28.2771522395,-81.2505236865,17RMM7543127930,https://www.google.com/maps/place/17RMM7543127930,414,40.553,RALPH V CHISHOLM REGIONAL PARK,V,2016-06-17 00:00:00,2021-11-18 00:00:00,156
-81.28640442290433,28.23243575587804,112630072500011160,STEPHANIE LEIGH ROTHSTEIN MEMORIAL PARK,2701 MISSOURI AVE,ST CLOUD,34769,OSCEOLA,NEIGHBORHOOD PARK / MIXED USE RECREATION,0.0, , , ,CITY OF ST CLOUD,MUNICIPALITY,PUBLIC, ,OSCEOLA COUNTY,OSCEOLA_PARKS_POLY,28.2324357567,-81.2864044239,17RMM7190122984,https://www.google.com/maps/place/17RMM7190122984,418,24.319,STEPHANIE LEIGH ROTHSTEIN MEMORIAL PARK,V,2016-06-17 00:00:00,2021-11-18 00:00:00,157
-81.25171255106459,28.23273026418651,072631495000011080,HICKORY TREE SPORTS FIELDS,2355 OLD HICKORY TREE RD,ST CLOUD,34772,OSCEOLA,NEIGHBORHOOD PARK / ATHLETIC,0.0, , , ,OSCEOLA COUNTY,COUNTY,PUBLIC, ,OSCEOLA COUNTY,OSCEOLA_PARKS_POLY,28.232730265,-81.2517125511,17RMM7530423009,https://www.google.com/maps/place/17RMM7530423009,419,28.117,HICKORY TREE SPORTS FIELDS,V,2012-02-02 00:00:00,2021-11-18 00:00:00,158
-81.2612281668294,28.2428892739059,122630072500010320,HOPKINS PARK,620 E 17TH ST,ST CLOUD,34769,OSCEOLA,NEIGHBORHOOD PARK / ATHLETIC,0.0, , , ,CITY OF ST CLOUD,MUNICIPALITY,PUBLIC, ,OSCEOLA COUNTY,OSCEOLA_PARKS_POLY,28.2428892747,-81.2612281679,17RMM7437324137,https://www.google.com/maps/place/17RMM7437324137,420,3.778,HOPKINS PARK,V,2012-02-02 00:00:00,2021-11-18 00:00:00,159
-81.2261076234047,28.297304606053306,212531426000010400,NARCOOSSEE COMMUNITY PARK,5354 RAMBLING RD,ST CLOUD,34771,OSCEOLA,NEIGHBORHOOD PARK / MIXED USE RECREATION,0.0, , , ,OSCEOLA COUNTY,COUNTY,PUBLIC, ,OSCEOLA COUNTY,OSCEOLA_PARKS_POLY,28.2973046068,-81.2261076234,17RMM7783030158,https://www.google.com/maps/place/17RMM7783030158,424,10.839,NARCOOSSEE COMMUNITY PARK,V,2012-02-02 00:00:00,2021-11-18 00:00:00,160
-81.08168877584467,28.134377044322534,142732000001400000,HOLOPAW COMMUNITY PARK,5220 HOLOPAW RD,ST CLOUD,34773,OSCEOLA,NEIGHBORHOOD PARK / MIXED USE RECREATION,0.0, , , ,OSCEOLA COUNTY,COUNTY,PUBLIC, ,OSCEOLA COUNTY,OSCEOLA_PARKS_POLY,28.134377046,-81.0816887758,17RMM9197812091,https://www.google.com/maps/place/17RMM9197812091,425,32.723,HOLOPAW COMMUNITY PARK,V,2012-02-02 00:00:00,2021-11-18 00:00:00,161
-81.42977568403037,28.19812677596203,2926292588000100A0,MAC OVERSTREET REGIONAL PARK,3271 PLEASANT HILL RD,KISSIMMEE,34746,OSCEOLA,NEIGHBORHOOD PARK / OPEN SPACE,0.0, , , ,OSCEOLA COUNTY,COUNTY,PUBLIC, ,OSCEOLA COUNTY,OSCEOLA_PARKS_POLY,28.1981267768,-81.4297756851,17RMM5782119225,https://www.google.com/maps/place/17RMM5782119225,426,448.249,MAC OVERSTREET REGIONAL PARK,V,2015-04-27 00:00:00,2021-11-18 00:00:00,162
-81.48653507858221,28.16836202471812,2526286118000B0010,DEERWOOD COMMUNITY PARK,4051 LAUREL AVE,KISSIMMEE,34758,OSCEOLA,NEIGHBORHOOD PARK / ATHLETIC,0.0, , , ,OSCEOLA COUNTY,COUNTY,PUBLIC, ,OSCEOLA COUNTY,OSCEOLA_PARKS_POLY,28.1683620264,-81.4865350786,17RMM5223715949,https://www.google.com/maps/place/17RMM5223715949,427,22.437,DEERWOOD COMMUNITY PARK,V,2012-02-02 00:00:00,2021-11-18 00:00:00,163
-80.87560235092302,27.688516067321494,133234279000011740,YEEHAW NEIGBORHOOD PARK,3660 MAPLE LN,OKEECHOBEE,34972,OSCEOLA,NEIGHBORHOOD PARK / MIXED USE RECREATION,0.0, , , ,OSCEOLA COUNTY,COUNTY,PUBLIC, ,OSCEOLA COUNTY,OSCEOLA_PARKS_POLY,27.688516069,-80.8756023519,17RNL1226662705,https://www.google.com/maps/place/17RNL1226662705,429,2.991,YEEHAW NEIGBORHOOD PARK,V,2012-02-02 00:00:00,2021-11-18 00:00:00,165
-81.50861406918922,28.262619766072042,332528350000190030,SHELBY COX NEIGHBORHOOD PARK,5618 OLD TAMPA HWY,INTERCESSION CITY,33848,OSCEOLA,NEIGHBORHOOD PARK / PLAYGROUND,0.0, , , ,OSCEOLA COUNTY,COUNTY,PUBLIC, ,OSCEOLA COUNTY,OSCEOLA_PARKS_POLY,28.2626197669,-81.5086140692,17RMM5011326400,https://www.google.com/maps/place/17RMM5011326400,430,0.478,SHELBY COX NEIGHBORHOOD PARK,V,2016-06-17 00:00:00,2021-11-18 00:00:00,166
-81.05229477271448,29.26772096917948,3214420C000001,ARROYO OAKS MINI PARK,165 ARROYO PKY,ORMOND BEACH,32174,VOLUSIA,NEIGHBORHOOD PARK / OPEN SPACE,0.0, , , ,CITY OF ORMOND BEACH,MUNICIPALITY,PUBLIC, ,VOLUSIA COUNTY,VOLUSIA_PARKS,29.2677209709,-81.0522947727,17RMN9492037649,https://www.google.com/maps/place/17RMN9492037649,433,0.206,ARROYO OAKS MINI PARK,V,2016-06-17 00:00:00,2021-11-18 00:00:00,167
-81.06580365683345,29.339192881993636,32134103000050,BICENTENNIAL PARK,1850 OCEAN SHORE BLVD,ORMOND BEACH,32176,VOLUSIA,NEIGHBORHOOD PARK / MIXED USE RECREATION,0.0,N/A, , ,VOLUSIA COUNTY,COUNTY,PUBLIC, ,VOLUSIA COUNTY,VOLUSIA_PARKS,29.3391928837,-81.0658036568,17RMN9361245568,https://www.google.com/maps/place/17RMN9361245568,436,37.788,BICENTENNIAL PARK,V,2016-06-17 00:00:00,2021-11-18 00:00:00,169
-80.91958679933451,29.02429629865917,34174100000060,RIVERSIDE PARK,105 S RIVERSIDE DR,NEW SMYRNA BEACH,32168,VOLUSIA,NEIGHBORHOOD PARK / WALKING PATH,0.0, ,12-00342, ,CITY OF NEW SMYRNA BEACH,MUNICIPALITY,PUBLIC, ,VOLUSIA COUNTY,VOLUSIA_PARKS,29.0242962995,-80.9195868004,17RNN0783010680,https://www.google.com/maps/place/17RNN0783010680,445,5.797,RIVERSIDE PARK,V,2016-06-17 00:00:00,2021-11-18 00:00:00,174
-81.36422664900243,29.123166162931746,29164000000020,CHUCK LENNON PARK,5000 GREENFIELD DAIRY RD,DE LEON SPRINGS,32130,VOLUSIA,NEIGHBORHOOD PARK / ATHLETIC,0.0, , , ,VOLUSIA COUNTY,COUNTY,PUBLIC, ,VOLUSIA COUNTY,VOLUSIA_PARKS,29.1231661646,-81.364226649,17RMN6456621686,https://www.google.com/maps/place/17RMN6456621686,451,167.163,CHUCK LENNON PARK,V,2015-04-27 00:00:00,2021-11-18 00:00:00,175
-81.01611594128697,29.211047893299792,33153901030064,CITY ISLAND PARK,115 E ORANGE AVE,DAYTONA BEACH,32114,VOLUSIA,NEIGHBORHOOD PARK / MIXED USE RECREATION,0.0, , , ,CITY OF DAYTONA BEACH,MUNICIPALITY,PUBLIC, ,VOLUSIA COUNTY,VOLUSIA_PARKS,29.2110478941,-81.0161159413,17RMN9843431368,https://www.google.com/maps/place/17RMN9843431368,461,17.3,CITY ISLAND PARK,V,2015-04-27 00:00:00,2021-11-18 00:00:00,176
-81.02252199059224,29.23940025396538,33150501200011,COLINS PARK,210 UNIVERSITY BLVD,DAYTONA BEACH,32118,VOLUSIA,NEIGHBORHOOD PARK / MIXED USE RECREATION,0.0, , , ,CITY OF DAYTONA BEACH,MUNICIPALITY,PUBLIC, ,VOLUSIA COUNTY,VOLUSIA_PARKS,29.2394002557,-81.0225219906,17RMN9781134510,https://www.google.com/maps/place/17RMN9781134510,463,2.174,COLINS PARK,V,2012-02-02 00:00:00,2021-11-18 00:00:00,177
-81.18086476726583,28.86785307444552,31183059000020,LAKE BUTLER RECREATION COMPLEX,301 COURTLAND BLVD,DELTONA,32738,VOLUSIA,NEIGHBORHOOD PARK / MIXED USE RECREATION,0.0, , , ,CITY OF DELTONA,MUNICIPALITY,PUBLIC, ,VOLUSIA COUNTY,VOLUSIA_PARKS,28.8678530753,-81.1808647693,17RMM8236193358,https://www.google.com/maps/place/17RMM8236193358,472,9.991,LAKE BUTLER RECREATION COMPLEX,V,2012-02-02 00:00:00,2021-11-18 00:00:00,178
-81.34748034312827,29.113610072018,29164301280030,HESTER PARK,2335 S DUNDEE ST,DE LEON SPRINGS,32130,VOLUSIA,NEIGHBORHOOD PARK / ATHLETIC,0.0, , , ,VOLUSIA COUNTY,COUNTY,PUBLIC, ,VOLUSIA COUNTY,VOLUSIA_PARKS,29.1136100728,-81.3474803442,17RMN6619220623,https://www.google.com/maps/place/17RMN6619220623,489,4.759,HESTER PARK,V,2015-04-27 00:00:00,2021-11-18 00:00:00,184
-80.95262032396283,29.052261398494732,33170100000010,SPORTS COMPLEX,2000 TURNBULL BAY RD,NEW SMYRNA BEACH,32168,VOLUSIA,NEIGHBORHOOD PARK / ATHLETIC,0.0, , , ,CITY OF NEW SMYRNA BEACH,MUNICIPALITY,PUBLIC, ,VOLUSIA COUNTY,VOLUSIA_PARKS,29.0522614002,-80.952620325,17RNN0461213777,https://www.google.com/maps/place/17RNN0461213777,529,72.017,SPORTS COMPLEX,V,2016-06-17 00:00:00,2021-11-18 00:00:00,195
-81.29762966111578,28.929684604905766,30181403000010,POOSER PARK,100 E ELM DR,ORANGE CITY,32763,VOLUSIA,NEIGHBORHOOD PARK / OPEN SPACE,0.0, , , ,VOLUSIA COUNTY,COUNTY,PUBLIC, ,VOLUSIA COUNTY,VOLUSIA_PARKS,28.9296846066,-81.2976296611,17RMN7099100232,https://www.google.com/maps/place/17RMN7099100232,536,1.897,POOSER PARK,V,2012-02-02 00:00:00,2021-11-18 00:00:00,197
-80.96454345287034,28.99820855586246,33172600000190,DOG PARK,2641 PAIGE AVE,NEW SMYRNA BEACH,32168,VOLUSIA,NEIGHBORHOOD PARK / DOG PARK,0.0, , , ,CITY OF NEW SMYRNA BEACH,MUNICIPALITY,PUBLIC, ,VOLUSIA COUNTY,VOLUSIA_PARKS,28.9982085567,-80.9645434529,17RNN0345407788,https://www.google.com/maps/place/17RNN0345407788,543,0.786,DOG PARK,V,2012-02-02 00:00:00,2021-11-18 00:00:00,200
-81.03185035263306,29.23803324841843,33153729000111,ROSS POINT PARK,611 RIVERSIDE DR,DAYTONA BEACH,32117,VOLUSIA,NEIGHBORHOOD PARK / MIXED USE RECREATION,0.0, ,12-00322, ,CITY OF HOLLY HILL,MUNICIPALITY,PUBLIC, ,VOLUSIA COUNTY,VOLUSIA_PARKS,29.2380332492,-81.0318503537,17RMN9690534359,https://www.google.com/maps/place/17RMN9690534359,546,1.772,ROSS POINT PARK,V,2012-02-02 00:00:00,2021-11-18 00:00:00,202
-81.27980007003578,28.930839081754993,30181300000080,PFC EMORY L BENNETT PARK,1365 VETERANS MEMORIAL PKY,ORANGE CITY,32763,VOLUSIA,NEIGHBORHOOD PARK / MIXED USE RECREATION,0.0, , , ,VOLUSIA COUNTY,COUNTY,PUBLIC, ,VOLUSIA COUNTY,VOLUSIA_PARKS,28.9308390826,-81.27980007,17RMN7272900355,https://www.google.com/maps/place/17RMN7272900355,557,208.607,PFC EMORY L BENNETT PARK,V,2012-02-02 00:00:00,2021-11-18 00:00:00,205
-81.04780463639463,29.288385549662248,32141411000010,ROCKERFELLER GARDENS,25 RIVERSIDE DR,ORMOND BEACH,32176,VOLUSIA,NEIGHBORHOOD PARK / WALKING PATH,0.0, , , ,CITY OF ORMOND BEACH,MUNICIPALITY,PUBLIC, ,VOLUSIA COUNTY,VOLUSIA_PARKS,29.2883855514,-81.0478046364,17RMN9535739938,https://www.google.com/maps/place/17RMN9535739938,563,3.659,ROCKERFELLER GARDENS,V,2016-06-17 00:00:00,2021-11-18 00:00:00,206
-81.11920722253859,29.30766507891486,32140700000010,ORMOND BEACH SPORTS COMPLEX,700 HULL RD,ORMOND BEACH,32174,VOLUSIA,NEIGHBORHOOD PARK / ATHLETIC,0.0, , , ,CITY OF ORMOND BEACH,MUNICIPALITY,PUBLIC, ,VOLUSIA COUNTY,VOLUSIA_PARKS,29.3076650797,-81.1192072225,17RMN8842442079,https://www.google.com/maps/place/17RMN8842442079,567,121.629,ORMOND BEACH SPORTS COMPLEX,V,2015-04-27 00:00:00,2021-11-18 00:00:00,207
-81.01624942745102,29.152822620951206,33163701020010,REED CANAL PARK,919 REED CANAL RD,DAYTONA BEACH,32119,VOLUSIA,NEIGHBORHOOD PARK / MIXED USE RECREATION,0.0, ,12-00468, ,CITY OF SOUTH DAYTONA,MUNICIPALITY,PUBLIC, ,VOLUSIA COUNTY,VOLUSIA_PARKS,29.1528226218,-81.0162494285,17RMN9842024917,https://www.google.com/maps/place/17RMN9842024917,570,34.563,REED CANAL PARK,V,2012-02-02 00:00:00,2021-11-18 00:00:00,209
-81.27920192488428,29.07457898721385,30162700001500,SPERLING COMPLEX,1500 MATT FAIR BLVD,DELAND,32724,VOLUSIA,NEIGHBORHOOD PARK / ATHLETIC,0.0, , , ,CITY OF DELAND,MUNICIPALITY,PUBLIC, ,VOLUSIA COUNTY,VOLUSIA_PARKS,29.0745789889,-81.2792019249,17RMN7282516281,https://www.google.com/maps/place/17RMN7282516281,571,50.702,SPERLING COMPLEX,V,2016-06-17 00:00:00,2021-11-18 00:00:00,210
-81.08515685261791,29.238375711828443,32143200000040,ROBERT STRICKLAND PARK,1670 STRICKLAND RANGE RD,DAYTONA BEACH,32117,VOLUSIA,NEIGHBORHOOD PARK / ATHLETIC,0.0, , , ,VOLUSIA COUNTY,COUNTY,PUBLIC, ,VOLUSIA COUNTY,VOLUSIA_PARKS,29.2383757127,-81.0851568536,17RMN9172534399,https://www.google.com/maps/place/17RMN9172534399,572,37.231,ROBERT STRICKLAND PARK,V,2012-02-02 00:00:00,2021-11-18 00:00:00,211
-81.04424318795925,29.26384553832638,32144220350290,PLAZA GRANDE,901 S BEACH ST,ORMOND BEACH,32174,VOLUSIA,NEIGHBORHOOD PARK / WALKING PATH,0.0, , , ,CITY OF ORMOND BEACH,MUNICIPALITY,PUBLIC, ,VOLUSIA COUNTY,VOLUSIA_PARKS,29.26384554,-81.0442431879,17RMN9570237219,https://www.google.com/maps/place/17RMN9570237219,579,1.159,PLAZA GRANDE,V,2012-02-02 00:00:00,2021-11-18 00:00:00,214
-81.3099714972231,29.012241326748402,30172017020230,SPRING HILL PARK,675 MATHIS ST,DELAND,32720,VOLUSIA,NEIGHBORHOOD PARK / MIXED USE RECREATION,0.0, , , ,VOLUSIA COUNTY,COUNTY,PUBLIC, ,VOLUSIA COUNTY,VOLUSIA_PARKS,29.0122413285,-81.3099714982,17RMN6981209381,https://www.google.com/maps/place/17RMN6981209381,580,4.329,SPRING HILL PARK,V,2016-06-17 00:00:00,2021-11-18 00:00:00,215
-81.0275960513822,29.228498869640738,NONE,SHIRLEY HEYMAN PARK,115 1ST ST,DAYTONA BEACH,32117,VOLUSIA,NEIGHBORHOOD PARK / OPEN SPACE,0.0, , , ,CITY OF HOLY HILL,MUNICIPALITY,PUBLIC, ,VOLUSIA COUNTY,VOLUSIA_PARKS,29.2284988705,-81.0275960524,17RMN9731833302,https://www.google.com/maps/place/17RMN9731833302,587,1.164,SHIRLEY HEYMAN PARK,V,2016-06-17 00:00:00,2021-11-18 00:00:00,219
-81.03632224491275,29.248795466299867,32144250010015,SUNRISE PARK NORTH,1135 RIVERSIDE DR,DAYTONA BEACH,32117,VOLUSIA,NEIGHBORHOOD PARK / MIXED USE RECREATION,0.0, ,12-00275, ,CITY OF HOLLY HILL,MUNICIPALITY,PUBLIC, ,VOLUSIA COUNTY,VOLUSIA_PARKS,29.248795468,-81.0363222449,17RMN9647135551,https://www.google.com/maps/place/17RMN9647135551,595,6.134,SUNRISE PARK NORTH,V,2012-02-02 00:00:00,2021-11-18 00:00:00,220
-81.30653584380018,29.009520946672236,30172111020090,SYLVESTER BRUTEN PARK,1115 S CLARA AVE,DELAND,32720,VOLUSIA,NEIGHBORHOOD PARK / PLAYGROUND,0.0, , , ,VOLUSIA COUNTY,COUNTY,PUBLIC, ,VOLUSIA COUNTY,VOLUSIA_PARKS,29.0095209475,-81.3065358438,17RMN7014609079,https://www.google.com/maps/place/17RMN7014609079,598,1.731,SYLVESTER BRUTEN PARK,V,2015-04-27 00:00:00,2021-11-18 00:00:00,223
-81.04482867955174,29.26442999649501,32144220350290,RIVIERA PARK,841 S BEACH ST,ORMOND BEACH,32174,VOLUSIA,NEIGHBORHOOD PARK / WALKING PATH,0.0, ,12-00330, ,CITY OF ORMOND BEACH,MUNICIPALITY,PUBLIC, ,VOLUSIA COUNTY,VOLUSIA_PARKS,29.2644299991,-81.0448286805,17RMN9564537284,https://www.google.com/maps/place/17RMN9564537284,610,4.609,RIVIERA PARK,V,2012-02-02 00:00:00,2021-11-18 00:00:00,225
-81.25806826024909,29.058253615172248,30170101070001,CYPRESS LAKE PARK & BOAT RAMP,1700 1ST AVE,DELAND,32724,VOLUSIA,NEIGHBORHOOD PARK / MIXED USE RECREATION,0.0,VO00019TX, , ,VOLUSIA COUNTY,COUNTY,PUBLIC,https://public.myfwc.com/LE/boatramp/public/Ramp.aspx?FacilityID=VO00019TX,VOLUSIA COUNTY,VOLUSIA_PARKS,29.058253616,-81.2580682602,17RMN7487814467,https://www.google.com/maps/place/17RMN7487814467,611,9.148,CYPRESS LAKE PARK & BOAT RAMP,V,2012-02-02 00:00:00,2021-11-18 00:00:00,226
-81.32158002091457,28.953997206639407,30180400000320,VALENTINE PARK,1511 W FRENCH AVE,ORANGE CITY,32763,VOLUSIA,NEIGHBORHOOD PARK / ATHLETIC,0.0, , , ,CITY OF ORANGE CITY,MUNICIPALITY,PUBLIC, ,VOLUSIA COUNTY,VOLUSIA_PARKS,28.9539972084,-81.3215800219,17RMN6866402931,https://www.google.com/maps/place/17RMN6866402931,616,34.404,VALENTINE PARK,V,2012-02-02 00:00:00,2021-11-18 00:00:00,227
-81.17824307848252,28.82441825710782,31192400000030,BECK RANCH PARK,651 SR 415,OSTEEN,32764,VOLUSIA,NATURE PARK,0.0, , , ,VOLUSIA COUNTY,COUNTY,PUBLIC, ,VOLUSIA COUNTY,VOLUSIA_PARKS,28.8244182588,-81.1782430785,17RMM8261088546,https://www.google.com/maps/place/17RMM8261088546,617,267.614,BECK RANCH PARK,V,2019-10-01 00:00:00,2021-11-18 00:00:00,228
-81.34430241963172,29.044229796397016,29170101000010,BARKLEY SQUARE DOG PARK,1010 N RIDGEWOOD AVE,DELAND,32720,VOLUSIA,NEIGHBORHOOD PARK / DOG PARK,0.0, , , ,VOLUSIA COUNTY,COUNTY,PUBLIC, ,VOLUSIA COUNTY,VOLUSIA_PARKS,29.0442297972,-81.3443024196,17RMN6647912935,https://www.google.com/maps/place/17RMN6647912935,628,61.959,BARKLEY SQUARE DOG PARK,V,2012-02-02 00:00:00,2021-11-18 00:00:00,231
-81.00993874418921,29.19886367783321,33153903610012,BETHUNE POINT PARK & BOAT RAMP,101 E BELLEVUE AVE,DAYTONA BEACH,32114,VOLUSIA,NEIGHBORHOOD PARK / MIXED USE RECREATION,0.0,VO00423TT, , ,CITY OF DAYTONA BEACH,MUNICIPALITY,PUBLIC,https://public.myfwc.com/LE/boatramp/public/Ramp.aspx?FacilityID=VO00423TT,VOLUSIA COUNTY,VOLUSIA_PARKS,29.1988636787,-81.0099387452,17RMN9903430018,https://www.google.com/maps/place/17RMN9903430018,629,22.32,BETHUNE POINT PARK & BOAT RAMP,V,2012-02-02 00:00:00,2021-11-18 00:00:00,232
-80.9593033099801,29.01539443766388,33174306000230,COLONY PARK,2231 SR 44,NEW SMYRNA BEACH,32168,VOLUSIA,NATURE PARK,0.0, , , ,VOLUSIA COUNTY,COUNTY,PUBLIC, ,VOLUSIA COUNTY,VOLUSIA_PARKS,29.0153944394,-80.959303311,17RNN0396309692,https://www.google.com/maps/place/17RNN0396309692,639,22.37,COLONY PARK,V,2012-02-02 00:00:00,2021-11-18 00:00:00,236
-81.18612223025522,28.617148297252825,3521315010E000000,WESTHAMPTON PARK,LOCKWOOD BLVD & CARILLON PARK DR,OVIEDO,32765,SEMINOLE,NEIGHBORHOOD PARK / MIXED USE RECREATION,0.0, , , ,SEMINOLE COUNTY,COUNTY,PUBLIC, ,SEMINOLE COUNTY,SEMINOLE_PARKS,28.617148298,-81.1861222303,17RMM8180565584,https://www.google.com/maps/place/17RMM8180565584,640,1.225,WESTHAMPTON PARK,V,2015-04-27 00:00:00,2021-11-18 00:00:00,237
-81.23992984714218,28.62799545660291,29213150100000360,JAMESTOWN PARK,2135 SOUTH ST,OVIEDO,32765,SEMINOLE,NEIGHBORHOOD PARK / MIXED USE RECREATION,0.0, , , ,SEMINOLE COUNTY,COUNTY,PUBLIC, ,SEMINOLE COUNTY,SEMINOLE_PARKS,28.6279954583,-81.2399298481,17RMM7654866795,https://www.google.com/maps/place/17RMM7654866795,641,0.966,JAMESTOWN PARK,V,2016-06-17 00:00:00,2021-11-18 00:00:00,238
-81.33224635669124,28.64338495942147,202130300001P0000,KEWANNEE PARK,1505 KEWANNEE TRL,MAITLAND,32751,SEMINOLE,NEIGHBORHOOD PARK / MIXED USE RECREATION,0.0, , , ,SEMINOLE COUNTY,COUNTY,PUBLIC, ,SEMINOLE COUNTY,SEMINOLE_PARKS,28.6433849611,-81.3322463567,17RMM6752968522,https://www.google.com/maps/place/17RMM6752968522,643,14.309,KEWANNEE PARK,V,2016-06-17 00:00:00,2021-11-18 00:00:00,240
-81.28969881361883,28.649263598546288,232130300010A0000,RED BUG LAKE PARK,3600 RED BUG LAKE RD,CASSELBERRY,32707,SEMINOLE,NEIGHBORHOOD PARK / ATHLETIC,0.0, ,12-00101, ,SEMINOLE COUNTY,COUNTY,PUBLIC, ,SEMINOLE COUNTY,SEMINOLE_PARKS,28.6492636002,-81.2896988136,17RMM7168969162,https://www.google.com/maps/place/17RMM7168969162,646,58.071,RED BUG LAKE PARK,V,2016-06-17 00:00:00,2021-11-18 00:00:00,241
-81.35352142146668,28.66683763362115,1821305060A000090,WINWOOD PARK,931 MORSE ST,ALTAMONTE SPRINGS,32701,SEMINOLE,NEIGHBORHOOD PARK / ATHLETIC,0.0, , , ,SEMINOLE COUNTY,COUNTY,PUBLIC, ,SEMINOLE COUNTY,SEMINOLE_PARKS,28.6668376353,-81.3535214214,17RMM6545771126,https://www.google.com/maps/place/17RMM6545771126,659,2.619,WINWOOD PARK,V,2012-02-02 00:00:00,2021-11-18 00:00:00,243
-81.39615455713495,28.677672283842124,10212930000900000,SANLANDO PARK,401 W HIGHLAND ST,ALTAMONTE SPRINGS,32714,SEMINOLE,NEIGHBORHOOD PARK / ATHLETIC,0.0, , , ,SEMINOLE COUNTY,COUNTY,PUBLIC, ,SEMINOLE COUNTY,SEMINOLE_PARKS,28.6776722846,-81.3961545571,17RMM6129572340,https://www.google.com/maps/place/17RMM6129572340,668,40.449,SANLANDO PARK,V,2016-06-17 00:00:00,2021-11-18 00:00:00,244
-81.36043798007029,28.681601852032557,0121295CK760P0000,LAKE ELAINE PARK,ELAINE AVE & FRANKLIN ST,ALTAMONTE SPRINGS,32701,SEMINOLE,NEIGHBORHOOD PARK / OPEN SPACE,0.0, , , ,SEMINOLE COUNTY,COUNTY,PUBLIC, ,GEOPLAN,SEMINOLE_PARKS,28.6816018537,-81.36043798,17RMM6478672764,https://www.google.com/maps/place/17RMM6478672764,670,3.764,LAKE ELAINE PARK,V,2016-06-17 00:00:00,2021-11-18 00:00:00,245
-81.35846658003395,28.682080458367327,0121295CK760P0001,LAKE PHYLLIS PARK,FRANKLIN ST & STELLE AVE,ALTAMONTE SPRINGS,32701,SEMINOLE,NEIGHBORHOOD PARK / OPEN SPACE,0.0, , , ,SEMINOLE COUNTY,COUNTY,PUBLIC, ,GEOPLAN,SEMINOLE_PARKS,28.6820804601,-81.35846658,17RMM6497972816,https://www.google.com/maps/place/17RMM6497972816,672,2.745,LAKE PHYLLIS PARK,V,2012-02-02 00:00:00,2021-11-18 00:00:00,246
-81.39606814894958,28.681658898102285,102129300010B0000,SEMINOLE COUNTY SOFTBALL COMPLEX,2200 NORTH ST,ALTAMONTE SPRINGS,32714,SEMINOLE,NEIGHBORHOOD PARK / ATHLETIC,0.0, , , ,SEMINOLE COUNTY,COUNTY,PUBLIC, ,SEMINOLE COUNTY,SEMINOLE_PARKS,28.6816588998,-81.3960681489,17RMM6130572781,https://www.google.com/maps/place/17RMM6130572781,674,33.145,SEMINOLE COUNTY SOFTBALL COMPLEX,V,2015-04-27 00:00:00,2021-11-18 00:00:00,247
-81.35939080270369,28.68406788362148,0121295CK730000P0,LAKE SEMINOLE PARK,NORTH ST & FAIRVIEW AVE,LONGWOOD,32750,SEMINOLE,NEIGHBORHOOD PARK / OPEN SPACE,0.0, , , ,SEMINOLE COUNTY,COUNTY,PUBLIC, ,GEOPLAN,SEMINOLE_PARKS,28.6840678853,-81.3593908027,17RMM6488973037,https://www.google.com/maps/place/17RMM6488973037,675,1.947,LAKE SEMINOLE PARK,V,2012-02-02 00:00:00,2021-11-18 00:00:00,248
-81.32014745594776,28.68973869406864,0421305130R000000,LAKE HODGE PARK,870 OSCEOLA TRL,CASSELBERRY,32707,SEMINOLE,NEIGHBORHOOD PARK / MIXED USE RECREATION,0.0, , , ,CITY OF CASSELBERRY,MUNICIPALITY,PUBLIC, ,SEMINOLE COUNTY,SEMINOLE_PARKS,28.6897386949,-81.3201474559,17RMM6872573654,https://www.google.com/maps/place/17RMM6872573654,678,3.049,LAKE HODGE PARK,V,2015-04-27 00:00:00,2021-11-18 00:00:00,249
-81.27300299970584,28.70844488625478,2620305AR0B000110,CENTRAL WINDS PARK,1000 CENTRAL WINDS DR,WINTER SPRINGS,32708,SEMINOLE,NEIGHBORHOOD PARK / MIXED USE RECREATION,0.0, ,12-00442, ,CITY OF WINTER SPRINGS,MUNICIPALITY,PUBLIC, ,SEMINOLE COUNTY,SEMINOLE_PARKS,28.708444888,-81.2730030007,17RMM7333575715,https://www.google.com/maps/place/17RMM7333575715,685,104.06,CENTRAL WINDS PARK,V,2012-02-02 00:00:00,2021-11-18 00:00:00,251
-81.33676190336065,28.71075817692755,322030300002A0000,CANDYLAND PARK,599 LONGDALE AVE,LONGWOOD,32750,SEMINOLE,NEIGHBORHOOD PARK / ATHLETIC,0.0, , , ,CITY OF LONGWOOD,MUNICIPALITY,PUBLIC, ,SEMINOLE COUNTY,SEMINOLE_PARKS,28.7107581786,-81.3367619044,17RMM6710875987,https://www.google.com/maps/place/17RMM6710875987,686,17.369,CANDYLAND PARK,V,2012-02-02 00:00:00,2021-11-18 00:00:00,252
-81.33665884374737,28.713358914496126,2920305CZ0P020000,ARBOR PARK,1405 N GRANT ST,LONGWOOD,32750,SEMINOLE,NEIGHBORHOOD PARK / PLAYGROUND,0.0, , , ,CITY OF LONGWOOD,MUNICIPALITY,PUBLIC, ,SEMINOLE COUNTY,SEMINOLE_PARKS,28.7133589162,-81.3366588437,17RMM6711976275,https://www.google.com/maps/place/17RMM6711976275,689,2.929,ARBOR PARK,V,2016-06-17 00:00:00,2021-11-18 00:00:00,253
-81.36450649070535,28.717465450299226,2520295020P000000,SHADOW HILL PARK,146 SUNSET DR,LONGWOOD,32750,SEMINOLE,NEIGHBORHOOD PARK / PLAYGROUND,0.0, , , ,CITY OF LONGWOOD,MUNICIPALITY,PUBLIC, ,SEMINOLE COUNTY,SEMINOLE_PARKS,28.7174654529,-81.3645064907,17RMM6440176738,https://www.google.com/maps/place/17RMM6440176738,693,8.472,SHADOW HILL PARK,V,2012-02-02 00:00:00,2021-11-18 00:00:00,255
-81.31111403207164,28.720598535917045,2120305AP00000250,SOLDIERS CREEK PARK,2400 STATE RD 419,LONGWOOD,32750,SEMINOLE,NEIGHBORHOOD PARK / ATHLETIC,0.0, ,PENDING (FY 2017), ,SEMINOLE COUNTY,COUNTY,PUBLIC, ,SEMINOLE COUNTY,SEMINOLE_PARKS,28.7205985367,-81.3111140321,17RMM6961677071,https://www.google.com/maps/place/17RMM6961677071,694,44.44,SOLDIERS CREEK PARK,V,2019-09-23 00:00:00,2021-11-18 00:00:00,256
-81.33116282404389,28.718880831821153,2120305AP0000036B,BIG TREE PARK,761 GENERAL HURCHINSON PKY,LONGWOOD,32750,SEMINOLE,NEIGHBORHOOD PARK / MIXED USE RECREATION,0.0, ,PENDING (FY 2017), ,SEMINOLE COUNTY,COUNTY,PUBLIC, ,SEMINOLE COUNTY,SEMINOLE_PARKS,28.7188808335,-81.331162824,17RMM6765876886,https://www.google.com/maps/place/17RMM6765876886,695,14.878,BIG TREE PARK,V,2018-09-14 00:00:00,2021-11-18 00:00:00,257
-81.33789194096117,28.734737632156072,202030300006H0000,GREENWOOD LAKES PARK,660 GREEN WAY BLVD,LAKE MARY,32746,SEMINOLE,NEIGHBORHOOD PARK / MIXED USE RECREATION,0.0, , , ,SEMINOLE COUNTY,COUNTY,PUBLIC, ,SEMINOLE COUNTY,SEMINOLE_PARKS,28.7347376339,-81.337891942,17RMM6700678644,https://www.google.com/maps/place/17RMM6700678644,697,15.676,GREENWOOD LAKES PARK,V,2012-02-02 00:00:00,2021-11-18 00:00:00,259
-81.28597807847247,28.75074236744611,142030501000000P0,LAKE DOT PARK,100 LAKE DOT DR,SANFORD,32773,SEMINOLE,NEIGHBORHOOD PARK / OPEN SPACE,0.0, , , ,SEMINOLE COUNTY,COUNTY,PUBLIC, ,SEMINOLE COUNTY,SEMINOLE_PARKS,28.7507423682,-81.2859780785,17RMM7207980404,https://www.google.com/maps/place/17RMM7207980404,699,7.839,LAKE DOT PARK,V,2012-02-02 00:00:00,2021-11-18 00:00:00,260
-81.2892886020649,28.751246514240837,1420305010C000000,SUNLAND PARK,180 COLLINS DR,SANFORD,32773,SEMINOLE,NEIGHBORHOOD PARK / ATHLETIC,0.0, , , ,SEMINOLE COUNTY,COUNTY,PUBLIC, ,SEMINOLE COUNTY,SEMINOLE_PARKS,28.751246516,-81.2892886031,17RMM7175680461,https://www.google.com/maps/place/17RMM7175680461,700,5.573,SUNLAND PARK,V,2012-02-02 00:00:00,2021-11-18 00:00:00,261
-81.28116186942285,28.751953691147012,1320305020P000000,LAKE DOT PARK AT TUCKER AND WAITS DRIVE,TUCKER DR & BAYWOOD CIR,SANFORD,32773,SEMINOLE,NEIGHBORHOOD PARK / OPEN SPACE,0.0, , , ,SEMINOLE COUNTY,COUNTY,PUBLIC, ,GEOPLAN,SEMINOLE_PARKS,28.751953692,-81.2811618704,17RMM7255080537,https://www.google.com/maps/place/17RMM7255080537,701,3.405,LAKE DOT PARK AT TUCKER AND WAITS DRIVE,V,2016-06-17 00:00:00,2021-11-18 00:00:00,262
-81.26957156603733,28.766325165630636,12203030000500000,JENKINS CIRCLE PARK,112 JINKINS CIR,SANFORD,32773,SEMINOLE,NEIGHBORHOOD PARK / MIXED USE RECREATION,0.0, , , ,CITY OF SANFORD,MUNICIPALITY,PUBLIC, ,SEMINOLE COUNTY,SEMINOLE_PARKS,28.7663251664,-81.269571566,17RMM7368582127,https://www.google.com/maps/place/17RMM7368582127,706,2.489,JENKINS CIRCLE PARK,V,2016-06-17 00:00:00,2021-11-18 00:00:00,263
-81.23736851342842,28.793147019447442,3219315070G00021B,MIDWAY PARK,2045 HURSTON AVE,SANFORD,32771,SEMINOLE,NEIGHBORHOOD PARK / MIXED USE RECREATION,0.0, , , ,SEMINOLE COUNTY,COUNTY,PUBLIC, ,SEMINOLE COUNTY,SEMINOLE_PARKS,28.7931470202,-81.2373685134,17RMM7683485092,https://www.google.com/maps/place/17RMM7683485092,720,1.719,MIDWAY PARK,V,2015-04-27 00:00:00,2021-11-18 00:00:00,266
-81.32736034633407,28.795285970489523,3219305010000007A,DERBY PARK,1801 LOWE AVE,SANFORD,32771,SEMINOLE,NEIGHBORHOOD PARK / MIXED USE RECREATION,0.0, , , ,CITY OF SANFORD,MUNICIPALITY,PUBLIC, ,SEMINOLE COUNTY,SEMINOLE_PARKS,28.7952859722,-81.3273603463,17RMM6805285349,https://www.google.com/maps/place/17RMM6805285349,727,22.124,DERBY PARK,V,2016-06-17 00:00:00,2021-11-18 00:00:00,267
-81.24637073978238,28.795986752772635,32193150200000300,ROSELAND PARK,1898 ROSSEBERRY LN,SANFORD,32771,SEMINOLE,NEIGHBORHOOD PARK / OPEN SPACE,0.0, , , ,SEMINOLE COUNTY,COUNTY,PUBLIC, ,SEMINOLE COUNTY,SEMINOLE_PARKS,28.7959867545,-81.2463707398,17RMM7595685408,https://www.google.com/maps/place/17RMM7595685408,728,0.213,ROSELAND PARK,V,2016-06-17 00:00:00,2021-11-18 00:00:00,268
-81.38682809463552,28.802013963258915,261929300002A0000,SYLVAN LAKE PARK,855 LAKE MARKHAM RD,SANFORD,32771,SEMINOLE,NEIGHBORHOOD PARK / MIXED USE RECREATION,0.0, ,12-00091, ,SEMINOLE COUNTY,COUNTY,PUBLIC, ,SEMINOLE COUNTY,SEMINOLE_PARKS,28.802013965,-81.3868280946,17RMM6225186112,https://www.google.com/maps/place/17RMM6225186112,732,93.081,SYLVAN LAKE PARK,V,2015-04-27 00:00:00,2021-11-18 00:00:00,269
-81.33427832933414,28.825954644063767,2019305010P000000,BOOKERTOWN PARK,4640 RICHARD ALLEN ST,SANFORD,32771,SEMINOLE,NEIGHBORHOOD PARK / MIXED USE RECREATION,0.0, , , ,SEMINOLE COUNTY,COUNTY,PUBLIC, ,SEMINOLE COUNTY,SEMINOLE_PARKS,28.8259546458,-81.3342783303,17RMM6738788749,https://www.google.com/maps/place/17RMM6738788749,743,3.566,BOOKERTOWN PARK,V,2016-06-17 00:00:00,2021-11-18 00:00:00,272
-81.37010846502395,28.64708881131876,24212954100000010,SUNSHINE PARK,800 OAKLAND RD,ALTAMONTE SPRINGS,32701,SEMINOLE,NEIGHBORHOOD PARK / OPEN SPACE,0.0, , , ,CITY OF ALTAMONTE SPRINGS,MUNICIPALITY,PUBLIC, ,SEMINOLE COUNTY,SEMINOLE_PARKS,28.6470888148,-81.370108466,17RMM6383068943,https://www.google.com/maps/place/17RMM6383068943,746,0.789,SUNSHINE PARK,V,2015-04-27 00:00:00,2021-11-18 00:00:00,273
-81.34486270226276,28.666039252630267,1721305060A000010,SUNNYTOWN PARK,450 BALL PARK RD,CASSELBERRY,32707,SEMINOLE,NEIGHBORHOOD PARK / MIXED USE RECREATION,0.0, , , ,CITY OF CASSELBERRY,MUNICIPALITY,PUBLIC, ,SEMINOLE COUNTY,SEMINOLE_PARKS,28.6660392534,-81.3448627023,17RMM6630371035,https://www.google.com/maps/place/17RMM6630371035,749,7.567,SUNNYTOWN PARK,V,2015-04-27 00:00:00,2021-11-18 00:00:00,274
-82.48466869428242,27.19753083281441,0143160002,BAY STREET PARK,300 E BAY ST,OSPREY,34229,SARASOTA,NATURE PARK,0.0, , , ,SARASOTA COUNTY,COUNTY,PUBLIC, ,SARASOTA COUNTY,SARASOTA COUNTY,27.1975308336,-82.4846686943,17RLL5294709185,https://www.google.com/maps/place/17RLL5294709185,779,18.606,BAY STREET PARK,V,2012-08-23 00:00:00,2021-11-18 00:00:00,283
-82.4269572681597,27.29021466377032,0260030032,LAKEVIEW PARK AND PAW PARK,7150 LAGO ST,SARASOTA,34241,SARASOTA,NEIGHBORHOOD PARK / DOG PARK,0.0,N/A, , ,SARASOTA COUNTY,COUNTY,PUBLIC, ,SARASOTA COUNTY,SARASOTA COUNTY,27.2902146645,-82.4269572682,17RLL5878119386,https://www.google.com/maps/place/17RLL5878119386,781,16.668,LAKEVIEW PARK AND PAW PARK,V,2015-04-27 00:00:00,2021-11-18 00:00:00,284
-82.4629585333229,27.30917887605119,0064120001,COLONIAL OAKS PARK SOUTH,5300 COLONIAL OAKS BLVD,SARASOTA,34232,SARASOTA,NEIGHBORHOOD PARK / WALKING PATH,0.0, , , ,SARASOTA COUNTY,COUNTY,PUBLIC, ,SARASOTA COUNTY,SARASOTA COUNTY,27.3091788777,-82.4629585333,17RLL5524221528,https://www.google.com/maps/place/17RLL5524221528,783,7.845,COLONIAL OAKS PARK SOUTH,V,2016-06-17 00:00:00,2021-11-18 00:00:00,285
-82.52317319240065,27.360907697248667,0028140004,NEWTOWN ESTATES PARK,2800 NEWTOWN BLVD,SARASOTA,34234,SARASOTA,NEIGHBORHOOD PARK / MIXED USE RECREATION,0.0, , , ,SARASOTA COUNTY,COUNTY,PUBLIC, ,SARASOTA COUNTY,SARASOTA COUNTY,27.3609076989,-82.5231731934,17RLL4935327331,https://www.google.com/maps/place/17RLL4935327331,784,10.473,NEWTOWN ESTATES PARK,V,2012-08-23 00:00:00,2021-11-18 00:00:00,286
-82.39792662936496,27.05712922245922,0447110001,WOODMERE PARK AND PAW PARK,3951 WOODMERE PARK BLVD,VENICE,34293,SARASOTA,NEIGHBORHOOD PARK / DOG PARK,0.0, , , ,SARASOTA COUNTY,COUNTY,PUBLIC, ,SARASOTA COUNTY,SARASOTA COUNTY,27.0571292232,-82.3979266304,17RLK6136693532,https://www.google.com/maps/place/17RLK6136693532,786,76.15,WOODMERE PARK AND PAW PARK,V,2012-08-23 00:00:00,2021-11-18 00:00:00,287
-82.50695181934461,27.29052053567172,0073030001,BEE RIDGE PARK,4430 S LOCKWOOD RIDGE RD,SARASOTA,34231,SARASOTA,NEIGHBORHOOD PARK / ATHLETIC,0.0, , , ,SARASOTA COUNTY,COUNTY,PUBLIC, ,SARASOTA COUNTY,SARASOTA COUNTY,27.2905205364,-82.5069518193,17RLL5086419513,https://www.google.com/maps/place/17RLL5086419513,787,9.67,BEE RIDGE PARK,V,2012-08-23 00:00:00,2021-11-18 00:00:00,288
-82.44542446912465,27.116895800012287,0405110050,NOKOMIS COMMUNITY PARK,234 NIPPINO TRL E,NOKOMIS,34275,SARASOTA,NEIGHBORHOOD PARK / MIXED USE RECREATION,0.0,N/A, , ,SARASOTA COUNTY,COUNTY,PUBLIC, ,SARASOTA COUNTY,SARASOTA COUNTY,27.1168958008,-82.4454244701,17RLL5673200206,https://www.google.com/maps/place/17RLL5673200206,788,17.415,NOKOMIS COMMUNITY PARK,V,2020-10-08 00:00:00,2021-11-18 00:00:00,289
-82.4627604432677,27.31102602683668,0064120001,COLONIAL OAKS PARK NORTH,5300 COLONIAL OAKS BLVD,SARASOTA,34232,SARASOTA,NEIGHBORHOOD PARK / MIXED USE RECREATION,0.0, , , ,SARASOTA COUNTY,COUNTY,PUBLIC, ,SARASOTA COUNTY,SARASOTA COUNTY,27.3110260276,-82.4627604433,17RLL5526421733,https://www.google.com/maps/place/17RLL5526421733,792,9.172,COLONIAL OAKS PARK NORTH,V,2012-08-23 00:00:00,2021-11-18 00:00:00,291
-82.54935719527134,27.273997560263666,0082080011,GLEBE PARK,998 GLEBE LN,SARASOTA,34242,SARASOTA,NEIGHBORHOOD PARK / ATHLETIC,0.0, , , ,SARASOTA COUNTY,COUNTY,PUBLIC, ,SARASOTA COUNTY,SARASOTA COUNTY,27.273997561,-82.5493571953,17RLL4664417734,https://www.google.com/maps/place/17RLL4664417734,814,10.011,GLEBE PARK,V,2016-06-17 00:00:00,2021-11-18 00:00:00,312
-82.42958340878977,27.092109517189783,0427030001,FOXWORTHY CAMPUS BYPASS PARK,1101 GULF COAST BLVD,VENICE,34285,SARASOTA,NEIGHBORHOOD PARK / ATHLETIC,0.0, , , ,SARASOTA COUNTY,COUNTY,PUBLIC, ,SARASOTA COUNTY,SARASOTA COUNTY,27.0921095189,-82.4295834088,17RLK5827197443,https://www.google.com/maps/place/17RLK5827197443,823,38.466,FOXWORTHY CAMPUS BYPASS PARK,V,2012-08-23 00:00:00,2021-11-18 00:00:00,313
-82.4831557027327,27.299566576661107,NONE,MCINTOSH LANE PARK,MCINTOSH LN,SARASOTA,34232,SARASOTA,NEIGHBORHOOD PARK / OPEN SPACE,0.0, , , ,SARASOTA COUNTY,COUNTY,PUBLIC, ,SARASOTA COUNTY,SARASOTA COUNTY,27.2995665774,-82.4831557037,17RLL5323120487,https://www.google.com/maps/place/17RLL5323120487,825,0.316,MCINTOSH LANE PARK,V,2012-08-23 00:00:00,2021-11-18 00:00:00,314
-82.46277596854704,27.16624656431955,0162040020,SORRENTO EAST PARK,420 RUBINS DR,NOKOMIS,34275,SARASOTA,NEIGHBORHOOD PARK / OPEN SPACE,0.0, , , ,SARASOTA COUNTY,COUNTY,PUBLIC, ,SARASOTA COUNTY,SARASOTA COUNTY,27.166246566,-82.4627759685,17RLL5507505694,https://www.google.com/maps/place/17RLL5507505694,827,6.038,SORRENTO EAST PARK,V,2012-08-23 00:00:00,2021-11-18 00:00:00,315
-82.408470353836,27.04833014451441,0458020006,SOUTH VENICE PARK 23,4201 TARPON RD,VENICE,34293,SARASOTA,NEIGHBORHOOD PARK / OPEN SPACE,0.0, , , ,SARASOTA COUNTY,COUNTY,PUBLIC, ,SARASOTA COUNTY,SARASOTA COUNTY,27.0483301462,-82.4084703538,17RLK6031092569,https://www.google.com/maps/place/17RLK6031092569,831,9.161,SOUTH VENICE PARK 23,V,2012-08-23 00:00:00,2021-11-18 00:00:00,317
-82.40186731001275,27.06458411251355,0436160012,SOUTH VENICE PARK 13,1094 MOHEGAN RD,VENICE,34293,SARASOTA,NEIGHBORHOOD PARK / OPEN SPACE,0.0, , , ,SARASOTA COUNTY,COUNTY,PUBLIC, ,SARASOTA COUNTY,SARASOTA COUNTY,27.0645841133,-82.40186731,17RLK6098594362,https://www.google.com/maps/place/17RLK6098594362,832,5.582,SOUTH VENICE PARK 13,V,2012-08-23 00:00:00,2021-11-18 00:00:00,318
-82.40470245237013,27.031901821198915,0472080040,SOUTH VENICE PARK 31,425 BUCKNELL RD,VENICE,34293,SARASOTA,NEIGHBORHOOD PARK / OPEN SPACE,0.0, , , ,SARASOTA COUNTY,COUNTY,PUBLIC, ,SARASOTA COUNTY,SARASOTA COUNTY,27.0319018229,-82.4047024534,17RLK6066390745,https://www.google.com/maps/place/17RLK6066390745,835,0.187,SOUTH VENICE PARK 31,V,2012-08-23 00:00:00,2021-11-18 00:00:00,319
-82.53188014278209,27.366784631170454,2020010016,COHEN PARK,1900 MYRTLE ST,SARASOTA,34234,SARASOTA,NEIGHBORHOOD PARK / PLAYGROUND,0.0, , , ,CITY OF SARASOTA,MUNICIPALITY,PUBLIC, ,SARASOTA COUNTY,SARASOTA COUNTY,27.3667846328,-82.5318801428,17RLL4850027992,https://www.google.com/maps/place/17RLL4850027992,836,3.176,COHEN PARK,V,2012-08-23 00:00:00,2021-11-18 00:00:00,320
-82.39992164384014,27.028497021287013,0470130015,SOUTH VENICE PARK 35,5700 ENGLEWOOD RD,VENICE,34293,SARASOTA,NEIGHBORHOOD PARK / OPEN SPACE,0.0, , , ,SARASOTA COUNTY,COUNTY,PUBLIC, ,SARASOTA COUNTY,SARASOTA COUNTY,27.028497023,-82.3999216438,17RLK6113390363,https://www.google.com/maps/place/17RLK6113390363,837,3.289,SOUTH VENICE PARK 35,V,2012-08-23 00:00:00,2021-11-18 00:00:00,321
-82.42318630394477,27.067839850196894,0434100037,SOUTH VENICE PARK 4,210 AUSTER RD,VENICE,34293,SARASOTA,NEIGHBORHOOD PARK / OPEN SPACE,0.0, , , ,SARASOTA COUNTY,COUNTY,PUBLIC, ,SARASOTA COUNTY,SARASOTA COUNTY,27.067839851,-82.423186305,17RLK5887594747,https://www.google.com/maps/place/17RLK5887594747,840,1.263,SOUTH VENICE PARK 4,V,2016-06-17 00:00:00,2021-11-18 00:00:00,322
-82.40353360319338,27.059232991881867,0449090048,SOUTH VENICE PARK 17,675 NIGHTINGALE RD,VENICE,34293,SARASOTA,NEIGHBORHOOD PARK / OPEN SPACE,0.0, , , ,SARASOTA COUNTY,COUNTY,PUBLIC, ,SARASOTA COUNTY,SARASOTA COUNTY,27.0592329936,-82.4035336042,17RLK6081393771,https://www.google.com/maps/place/17RLK6081393771,841,5.246,SOUTH VENICE PARK 17,V,2012-08-23 00:00:00,2021-11-18 00:00:00,323
-82.4092721140675,27.032304806797622,0472070111,SOUTH VENICE PARK 30,5425 KENT RD,VENICE,34293,SARASOTA,NEIGHBORHOOD PARK / OPEN SPACE,0.0, , , ,SARASOTA COUNTY,COUNTY,PUBLIC, ,SARASOTA COUNTY,SARASOTA COUNTY,27.0323048076,-82.4092721141,17RLK6021090795,https://www.google.com/maps/place/17RLK6021090795,842,3.099,SOUTH VENICE PARK 30,V,2012-08-23 00:00:00,2021-11-18 00:00:00,324
-82.4081180335235,27.03084868877345,0472100006,SOUTH VENICE PARK 32,5544 RICE RD,VENICE,34293,SARASOTA,NEIGHBORHOOD PARK / OPEN SPACE,0.0, , , ,SARASOTA COUNTY,COUNTY,PUBLIC, ,SARASOTA COUNTY,SARASOTA COUNTY,27.0308486895,-82.4081180345,17RLK6032390632,https://www.google.com/maps/place/17RLK6032390632,845,0.695,SOUTH VENICE PARK 32,V,2016-06-17 00:00:00,2021-11-18 00:00:00,325
-82.36849869899059,26.9641381037651,0497120001,ENGLEWOOD WATERFRONT PARK,50 SOUTHWOOD DR,ENGLEWOOD,34223,SARASOTA,NEIGHBORHOOD PARK,0.0, , , ,SARASOTA COUNTY,COUNTY,PUBLIC, ,SARASOTA COUNTY,SARASOTA COUNTY,26.9641381054,-82.3684987,17RLK6417383199,https://www.google.com/maps/place/17RLK6417383199,846,1.924,ENGLEWOOD WATERFRONT PARK,V,2016-06-17 00:00:00,2021-11-18 00:00:00,326
-82.40459636546157,27.043663512410802,0458160007,SOUTH VENICE PARK 25,201 MARLIN RD,VENICE,34293,SARASOTA,NEIGHBORHOOD PARK / OPEN SPACE,0.0, , , ,SARASOTA COUNTY,COUNTY,PUBLIC, ,SARASOTA COUNTY,SARASOTA COUNTY,27.0436635132,-82.4045963655,17RLK6068892048,https://www.google.com/maps/place/17RLK6068892048,849,6.966,SOUTH VENICE PARK 25,V,2012-08-23 00:00:00,2021-11-18 00:00:00,327
-82.41674449770312,27.06767469985282,0436120056,SOUTH VENICE PARK 7,2535 RIGEL RD,VENICE,34293,SARASOTA,NEIGHBORHOOD PARK / OPEN SPACE,0.0, , , ,SARASOTA COUNTY,COUNTY,PUBLIC, ,SARASOTA COUNTY,SARASOTA COUNTY,27.0676747006,-82.4167444977,17RLK5951394721,https://www.google.com/maps/place/17RLK5951394721,851,2.744,SOUTH VENICE PARK 7,V,2012-08-23 00:00:00,2021-11-18 00:00:00,328
-82.55875330643381,27.28900190086357,0079070028,BOYD PARK,4300 MIDNIGHT PASS RD,SARASOTA,34242,SARASOTA,NEIGHBORHOOD PARK / OPEN SPACE,0.0, , , ,SARASOTA COUNTY,COUNTY,PUBLIC, ,SARASOTA COUNTY,SARASOTA COUNTY,27.2890019025,-82.5587533064,17RLL4573419408,https://www.google.com/maps/place/17RLL4573419408,853,0.774,BOYD PARK,V,2012-08-23 00:00:00,2021-11-18 00:00:00,330
-82.42578334253018,27.07306833954753,0433110032,SOUTH VENICE PARK 2A,2100 GENTIAN RD,VENICE,34293,SARASOTA,NEIGHBORHOOD PARK / OPEN SPACE,0.0, , , ,SARASOTA COUNTY,COUNTY,PUBLIC, ,SARASOTA COUNTY,SARASOTA COUNTY,27.0730683412,-82.4257833435,17RLK5862495329,https://www.google.com/maps/place/17RLK5862495329,854,3.184,SOUTH VENICE PARK 2A,V,2012-08-23 00:00:00,2021-11-18 00:00:00,331
-82.4955101329902,27.33067745502408,2033130012,EASTWOOD PARK,422 W CORNELIUS CIR,SARASOTA,34232,SARASOTA,NEIGHBORHOOD PARK / PLAYGROUND,0.0, , , ,CITY OF SARASOTA,MUNICIPALITY,PUBLIC, ,SARASOTA COUNTY,SARASOTA COUNTY,27.3306774567,-82.495510134,17RLL5204923948,https://www.google.com/maps/place/17RLL5204923948,858,1.888,EASTWOOD PARK,V,2016-06-17 00:00:00,2021-11-18 00:00:00,332
-82.40929185395211,27.040367964732006,0459020066,SOUTH VENICE PARK 26,4682 MARLIN RD,VENICE,34293,SARASOTA,NEIGHBORHOOD PARK / OPEN SPACE,0.0, , , ,SARASOTA COUNTY,COUNTY,PUBLIC, ,SARASOTA COUNTY,SARASOTA COUNTY,27.0403679655,-82.409291854,17RLK6021891688,https://www.google.com/maps/place/17RLK6021891688,861,5.442,SOUTH VENICE PARK 26,V,2012-08-23 00:00:00,2021-11-18 00:00:00,333
-82.4245209169641,27.07037783893516,0434020020,SOUTH VENICE PARK 3,2220 GENTIAN RD,VENICE,34293,SARASOTA,NEIGHBORHOOD PARK / OPEN SPACE,0.0, , , ,SARASOTA COUNTY,COUNTY,PUBLIC, ,SARASOTA COUNTY,SARASOTA COUNTY,27.0703778406,-82.424520917,17RLK5874595030,https://www.google.com/maps/place/17RLK5874595030,862,1.272,SOUTH VENICE PARK 3,V,2012-08-23 00:00:00,2021-11-18 00:00:00,334
-82.40163943147896,27.10823727194353,0411010002,SAWGRASS PARK,301 N AUBURN RD,VENICE,34292,SARASOTA,NEIGHBORHOOD PARK / OPEN SPACE,0.0, , , ,CITY OF VENICE,MUNICIPALITY,PUBLIC, ,SARASOTA COUNTY,SARASOTA COUNTY,27.1082372736,-82.4016394315,17RLK6106199198,https://www.google.com/maps/place/17RLK6106199198,863,8.026,SAWGRASS PARK,V,2012-08-23 00:00:00,2021-11-18 00:00:00,335
-82.62617644288711,27.367581143188918,0006130001,BICENTENNIAL PARK,2730 GULF OF MEXICO DR,LONGBOAT KEY,34228,SARASOTA,NEIGHBORHOOD PARK / OPEN SPACE,0.0, , , ,TOWN OF LONGBOAT KEY,MUNICIPALITY,PUBLIC, ,SARASOTA COUNTY,SARASOTA COUNTY,27.3675811449,-82.6261764439,17RLL3917428199,https://www.google.com/maps/place/17RLL3917428199,864,0.998,BICENTENNIAL PARK,V,2012-08-23 00:00:00,2021-11-18 00:00:00,336
-82.42865238539687,27.07177773238273,0433140120,SKIP STASKO PARK,407 FAUN RD,VENICE,34293,SARASOTA,NATURE PARK,0.0, , , ,SARASOTA COUNTY,COUNTY,PUBLIC, ,SARASOTA COUNTY,SARASOTA COUNTY,27.0717777331,-82.4286523854,17RLK5833795189,https://www.google.com/maps/place/17RLK5833795189,868,7.322,SKIP STASKO PARK,V,2012-08-23 00:00:00,2021-11-18 00:00:00,337
-82.47997092933457,27.301331962129577,0063120069,SARASOTA SPRINGS PARK,4435 BEACON DR,SARASOTA,34232,SARASOTA,NEIGHBORHOOD PARK / OPEN SPACE,0.0, , , ,SARASOTA COUNTY,COUNTY,PUBLIC, ,SARASOTA COUNTY,SARASOTA COUNTY,27.3013319638,-82.4799709303,17RLL5354820679,https://www.google.com/maps/place/17RLL5354820679,869,0.494,SARASOTA SPRINGS PARK,V,2016-06-17 00:00:00,2021-11-18 00:00:00,338
-82.4733205740248,27.314645771806696,0062030017,VINSON AVE,4761 LINWOOD ST,SARASOTA,34232,SARASOTA,NEIGHBORHOOD PARK / OPEN SPACE,0.0, , , ,SARASOTA COUNTY,COUNTY,PUBLIC, ,SARASOTA COUNTY,SARASOTA COUNTY,27.3146457735,-82.473320574,17RLL5422422146,https://www.google.com/maps/place/17RLL5422422146,874,3.508,VINSON AVE,V,2012-08-23 00:00:00,2021-11-18 00:00:00,339
-82.42169452784893,27.0545777225998,0452070072,SOUTH VENICE PARK 20,3653 CLEMATIS RD,VENICE,34293,SARASOTA,NEIGHBORHOOD PARK / OPEN SPACE,0.0, , , ,SARASOTA COUNTY,COUNTY,PUBLIC, ,SARASOTA COUNTY,SARASOTA COUNTY,27.0545777243,-82.4216945288,17RLK5900693276,https://www.google.com/maps/place/17RLK5900693276,875,1.653,SOUTH VENICE PARK 20,V,2012-08-23 00:00:00,2021-11-18 00:00:00,340
-82.41010082873547,27.063571534470846,0449030045,SOUTH VENICE PARK 14,2903 GENEVA RD,VENICE,34293,SARASOTA,NEIGHBORHOOD PARK / OPEN SPACE,0.0, , , ,SARASOTA COUNTY,COUNTY,PUBLIC, ,SARASOTA COUNTY,SARASOTA COUNTY,27.0635715352,-82.4101008297,17RLK6016794259,https://www.google.com/maps/place/17RLK6016794259,876,1.573,SOUTH VENICE PARK 14,V,2016-06-17 00:00:00,2021-11-18 00:00:00,341
-82.4037467980159,27.037571049994828,0459090065,SOUTH VENICE PARK 27,371 OLIVIA RD,VENICE,34293,SARASOTA,NEIGHBORHOOD PARK / OPEN SPACE,0.0, , , ,SARASOTA COUNTY,COUNTY,PUBLIC, ,SARASOTA COUNTY,SARASOTA COUNTY,27.0375710526,-82.403746799,17RLK6076591372,https://www.google.com/maps/place/17RLK6076591372,878,1.958,SOUTH VENICE PARK 27,V,2016-06-17 00:00:00,2021-11-18 00:00:00,342
-82.40343763283245,27.03622997708524,0459090065,CHALLENGER PARK,371 OLIVIA RD,VENICE,34293,SARASOTA,NEIGHBORHOOD PARK / MIXED USE RECREATION,0.0, , , ,SARASOTA COUNTY,COUNTY,PUBLIC, ,SARASOTA COUNTY,SARASOTA COUNTY,27.0362299788,-82.4034376328,17RLK6079491223,https://www.google.com/maps/place/17RLK6079491223,879,3.937,CHALLENGER PARK,V,2016-06-17 00:00:00,2021-11-18 00:00:00,343
-82.40789269785364,27.066107277469623,0436100134,SOUTH VENICE PARK 10,800 MORNINGSIDE RD,VENICE,34293,SARASOTA,NEIGHBORHOOD PARK / OPEN SPACE,0.0, , , ,SARASOTA COUNTY,COUNTY,PUBLIC, ,SARASOTA COUNTY,SARASOTA COUNTY,27.0661072782,-82.4078926989,17RLK6038994538,https://www.google.com/maps/place/17RLK6038994538,883,4.178,SOUTH VENICE PARK 10,V,2012-08-23 00:00:00,2021-11-18 00:00:00,345
-82.53420690158131,27.275956198068116,0084010008,PHILLIPPI SHORES PARK,1863 PHILLIPPI SHORES DR,SARASOTA,34231,SARASOTA,NATURE PARK,0.0, , , ,SARASOTA COUNTY,COUNTY,PUBLIC, ,SARASOTA COUNTY,SARASOTA COUNTY,27.2759561988,-82.5342069016,17RLL4814617932,https://www.google.com/maps/place/17RLL4814617932,886,7.246,PHILLIPPI SHORES PARK,V,2012-08-23 00:00:00,2021-11-18 00:00:00,346
-82.41232365048576,27.063158788535993,0449030129,SOUTH VENICE PARK 15,2985 ARGYLE RD,VENICE,34293,SARASOTA,NEIGHBORHOOD PARK / OPEN SPACE,0.0, , , ,SARASOTA COUNTY,COUNTY,PUBLIC, ,SARASOTA COUNTY,SARASOTA COUNTY,27.0631587902,-82.4123236515,17RLK5994694216,https://www.google.com/maps/place/17RLK5994694216,889,4.368,SOUTH VENICE PARK 15,V,2012-08-23 00:00:00,2021-11-18 00:00:00,347
-82.44491368691193,27.122860760235376,0384140001,NOKOMIS RIVERVIEW PARK,251 RIVERVIEW DR,NOKOMIS,34275,SARASOTA,NEIGHBORHOOD PARK / OPEN SPACE,0.0,N/A, , ,SARASOTA COUNTY,COUNTY,PUBLIC, ,SARASOTA COUNTY,SARASOTA COUNTY,27.1228607619,-82.4449136879,17RLL5679000867,https://www.google.com/maps/place/17RLL5679000867,890,2.465,NOKOMIS RIVERVIEW PARK,V,2016-06-17 00:00:00,2021-11-18 00:00:00,348
-82.4143500466493,27.06758035670345,0436120055,SOUTH VENICE PARK 8,2535 RIGEL RD,VENICE,34293,SARASOTA,NEIGHBORHOOD PARK / OPEN SPACE,0.0, , , ,SARASOTA COUNTY,COUNTY,PUBLIC, ,SARASOTA COUNTY,SARASOTA COUNTY,27.0675803584,-82.4143500476,17RLK5975194708,https://www.google.com/maps/place/17RLK5975194708,891,3.272,SOUTH VENICE PARK 8,V,2016-06-17 00:00:00,2021-11-18 00:00:00,349
-82.50465605780447,27.32738281627273,0054070058,LOCKLEAR PARK,821 S LOCKWOOD RIDGE RD,SARASOTA,34237,SARASOTA,NEIGHBORHOOD PARK / PLAYGROUND,0.0, , , ,SARASOTA COUNTY,COUNTY,PUBLIC, ,SARASOTA COUNTY,SARASOTA COUNTY,27.3273828171,-82.5046560588,17RLL5114023594,https://www.google.com/maps/place/17RLL5114023594,894,9.419,LOCKLEAR PARK,V,2012-08-23 00:00:00,2021-11-18 00:00:00,350
-82.55012682553318,27.343680170124706,2009090036,WATERFRONT PARK AT CENTENNIAL PARK,1000 BLVD OF THE ARTS,SARASOTA,34236,SARASOTA,NEIGHBORHOOD PARK / OPEN SPACE,0.0, ,12-00314, ,CITY OF SARASOTA,MUNICIPALITY,PUBLIC, ,SARASOTA COUNTY,SARASOTA COUNTY,27.34368017,-82.5501268255,17RLL4666325455,https://www.google.com/maps/place/17RLL4666325455,896,7.149,WATERFRONT PARK AT CENTENNIAL PARK,NV,2012-08-23 00:00:00,2021-11-18 00:00:00,351
-82.54804354247796,27.350506653112934,2007080010,WHITAKER GATEWAY PARK,1446 N TAMIAMI TRL,SARASOTA,34236,SARASOTA,NEIGHBORHOOD PARK / MIXED USE RECREATION,0.0, ,12-00372, ,CITY OF SARASOTA,MUNICIPALITY,PUBLIC, ,SARASOTA COUNTY,SARASOTA COUNTY,27.3505066548,-82.5480435425,17RLL4687926209,https://www.google.com/maps/place/17RLL4687926209,903,8.433,WHITAKER GATEWAY PARK,V,2012-08-23 00:00:00,2021-11-18 00:00:00,352
-82.4129607651769,27.072133231644443,0435130002,VENICE GARDENS PARK,400 SHAMROCK BLVD,VENICE,34293,SARASOTA,NEIGHBORHOOD PARK / MIXED USE RECREATION,0.0, , , ,SARASOTA COUNTY,COUNTY,PUBLIC, ,SARASOTA COUNTY,SARASOTA COUNTY,27.0721332333,-82.4129607652,17RLK5989495211,https://www.google.com/maps/place/17RLK5989495211,904,10.248,VENICE GARDENS PARK,V,2016-06-17 00:00:00,2021-11-18 00:00:00,353
-82.53688999633698,27.297475813309873,0076020022,RED ROCK PARK,3987 CAMINO REAL ST,SARASOTA,34231,SARASOTA,NEIGHBORHOOD PARK / PLAYGROUND,0.0, , , ,SARASOTA COUNTY,COUNTY,PUBLIC, ,SARASOTA COUNTY,SARASOTA COUNTY,27.2974758141,-82.5368899973,17RLL4791020320,https://www.google.com/maps/place/17RLL4791020320,907,1.309,RED ROCK PARK,V,2016-06-17 00:00:00,2021-11-18 00:00:00,354
-82.41358055283216,27.02793582473904,0473030078,SOUTH VENICE PARK 33,910 COLONIAL RD,VENICE,34293,SARASOTA,NEIGHBORHOOD PARK / OPEN SPACE,0.0, , , ,SARASOTA COUNTY,COUNTY,PUBLIC, ,SARASOTA COUNTY,SARASOTA COUNTY,27.0279358264,-82.4135805528,17RLK5977890316,https://www.google.com/maps/place/17RLK5977890316,908,1.929,SOUTH VENICE PARK 33,V,2012-08-23 00:00:00,2021-11-18 00:00:00,355
-82.41766009759463,27.044744102807268,0456090003,SOUTH VENICE PARK 22,4101 MERIDIAN RD,VENICE,34293,SARASOTA,NEIGHBORHOOD PARK / OPEN SPACE,0.0, , , ,SARASOTA COUNTY,COUNTY,PUBLIC, ,SARASOTA COUNTY,SARASOTA COUNTY,27.0447441054,-82.4176600986,17RLK5939492182,https://www.google.com/maps/place/17RLK5939492182,909,2.238,SOUTH VENICE PARK 22,V,2012-08-23 00:00:00,2021-11-18 00:00:00,356
-82.41014651928137,27.05822681879499,0449140011,SOUTH VENICE PARK 19,200 NIGHTINGALE RD,VENICE,34293,SARASOTA,NEIGHBORHOOD PARK / OPEN SPACE,0.0, , , ,SARASOTA COUNTY,COUNTY,PUBLIC, ,SARASOTA COUNTY,SARASOTA COUNTY,27.0582268205,-82.4101465203,17RLK6015693667,https://www.google.com/maps/place/17RLK6015693667,910,0.459,SOUTH VENICE PARK 19,V,2012-08-23 00:00:00,2021-11-18 00:00:00,357
-82.42028365593765,27.06432728217674,0434160043,SOUTH VENICE PARK 6,181 BAHAMA RD,VENICE,34293,SARASOTA,NEIGHBORHOOD PARK / OPEN SPACE,0.0, , , ,SARASOTA COUNTY,COUNTY,PUBLIC, ,SARASOTA COUNTY,SARASOTA COUNTY,27.0643272829,-82.4202836559,17RLK5915894354,https://www.google.com/maps/place/17RLK5915894354,911,5.613,SOUTH VENICE PARK 6,V,2012-08-23 00:00:00,2021-11-18 00:00:00,358
-82.40920844560792,27.067737868022927,0436100130,SOUTH VENICE PARK 9,819 ROSEDALE RD,VENICE,34293,SARASOTA,NEIGHBORHOOD PARK / OPEN SPACE,0.0, , , ,SARASOTA COUNTY,COUNTY,PUBLIC, ,SARASOTA COUNTY,SARASOTA COUNTY,27.0677378697,-82.4092084466,17RLK6026194720,https://www.google.com/maps/place/17RLK6026194720,912,4.365,SOUTH VENICE PARK 9,V,2012-08-23 00:00:00,2021-11-18 00:00:00,359
-82.40744790382188,27.02916050455524,0472150010,SOUTH VENICE PARK 34,650 COLONIAL RD,VENICE,34293,SARASOTA,NEIGHBORHOOD PARK / OPEN SPACE,0.0, , , ,SARASOTA COUNTY,COUNTY,PUBLIC, ,SARASOTA COUNTY,SARASOTA COUNTY,27.0291605053,-82.4074479038,17RLK6038890444,https://www.google.com/maps/place/17RLK6038890444,913,10.217,SOUTH VENICE PARK 34,V,2012-08-23 00:00:00,2021-11-18 00:00:00,360
-82.4044078217152,27.03483112816954,0472010017,SOUTH VENICE PARK 29,452 MISSOURI RD,VENICE,34293,SARASOTA,NEIGHBORHOOD PARK / OPEN SPACE,0.0, , , ,SARASOTA COUNTY,COUNTY,PUBLIC, ,SARASOTA COUNTY,SARASOTA COUNTY,27.0348311289,-82.4044078217,17RLK6069691069,https://www.google.com/maps/place/17RLK6069691069,914,8.26,SOUTH VENICE PARK 29,V,2012-08-23 00:00:00,2021-11-18 00:00:00,361
-82.40654815877873,27.024047382378253,0473100121,SOUTH VENICE PARK 37,6000 JACK ST,VENICE,34293,SARASOTA,NEIGHBORHOOD PARK / OPEN SPACE,0.0, , , ,SARASOTA COUNTY,COUNTY,PUBLIC, ,SARASOTA COUNTY,SARASOTA COUNTY,27.0240473841,-82.4065481598,17RLK6047089877,https://www.google.com/maps/place/17RLK6047089877,915,1.62,SOUTH VENICE PARK 37,V,2012-08-23 00:00:00,2021-11-18 00:00:00,362
-82.40659101818649,27.027389075968607,0473020008,SOUTH VENICE PARK 36,583 COLONIAL RD,VENICE,34293,SARASOTA,NEIGHBORHOOD PARK / OPEN SPACE,0.0, , , ,SARASOTA COUNTY,COUNTY,PUBLIC, ,SARASOTA COUNTY,SARASOTA COUNTY,27.0273890767,-82.4065910192,17RLK6047090247,https://www.google.com/maps/place/17RLK6047090247,916,3.191,SOUTH VENICE PARK 36,V,2016-06-17 00:00:00,2021-11-18 00:00:00,363
-82.40959887233905,27.059944246784877,0449100029,SOUTH VENICE PARK 16,3189 GENEVA RD,VENICE,34293,SARASOTA,NEIGHBORHOOD PARK / OPEN SPACE,0.0, , , ,SARASOTA COUNTY,COUNTY,PUBLIC, ,SARASOTA COUNTY,SARASOTA COUNTY,27.0599442485,-82.4095988723,17RLK6021293857,https://www.google.com/maps/place/17RLK6021293857,917,3.111,SOUTH VENICE PARK 16,V,2012-08-23 00:00:00,2021-11-18 00:00:00,364
-82.40618310629159,27.058265274060695,0449150003,SOUTH VENICE PARK 18,546 NIGHTINGALE RD,VENICE,34293,SARASOTA,NEIGHBORHOOD PARK / OPEN SPACE,0.0, , , ,SARASOTA COUNTY,COUNTY,PUBLIC, ,SARASOTA COUNTY,SARASOTA COUNTY,27.0582652748,-82.4061831073,17RLK6054993667,https://www.google.com/maps/place/17RLK6054993667,918,0.827,SOUTH VENICE PARK 18,V,2016-06-17 00:00:00,2021-11-18 00:00:00,365
-82.40548577594042,27.046779343348874,0458080005,SOUTH VENICE PARK 24,4220 BLOSSOM RD,VENICE,34293,SARASOTA,NEIGHBORHOOD PARK / OPEN SPACE,0.0, , , ,SARASOTA COUNTY,COUNTY,PUBLIC, ,SARASOTA COUNTY,SARASOTA COUNTY,27.0467793441,-82.405485777,17RLK6060492394,https://www.google.com/maps/place/17RLK6060492394,919,0.192,SOUTH VENICE PARK 24,V,2012-08-23 00:00:00,2021-11-18 00:00:00,366
-82.4265061397183,27.067255566491013,0434110059,SOUTH VENICE PARK 5,542 ZEPHYR RD,VENICE,34293,SARASOTA,NEIGHBORHOOD PARK / OPEN SPACE,0.0, , , ,SARASOTA COUNTY,COUNTY,PUBLIC, ,SARASOTA COUNTY,SARASOTA COUNTY,27.0672555682,-82.4265061407,17RLK5854594686,https://www.google.com/maps/place/17RLK5854594686,920,4.949,SOUTH VENICE PARK 5,V,2012-08-23 00:00:00,2021-11-18 00:00:00,367
-82.50040455353562,27.36881055642385,0029070020,BEEKMAN PLACE PRESERVATION AREA,3941 SERENITY CIR,SARASOTA,34235,SARASOTA,NATURE PARK,0.0, , , ,SARASOTA COUNTY,COUNTY,PUBLIC, ,SARASOTA COUNTY,SARASOTA COUNTY,27.3688105572,-82.5004045535,17RLL5161628179,https://www.google.com/maps/place/17RLL5161628179,921,35.407,BEEKMAN PLACE PRESERVATION AREA,V,2016-06-17 00:00:00,2021-11-18 00:00:00,368
-82.39074180958995,27.294220424949405,0255001000,ROTHENBACH PARK,8650 BEE RIDGE RD,SARASOTA,34241,SARASOTA,NATURE PARK,0.0, , , ,SARASOTA COUNTY,COUNTY,PUBLIC, ,SARASOTA COUNTY,SARASOTA COUNTY,27.2942204257,-82.3907418106,17RLL6237019790,https://www.google.com/maps/place/17RLL6237019790,924,352.576,ROTHENBACH PARK,V,2012-08-23 00:00:00,2021-11-18 00:00:00,371
-82.42791925364314,27.07537451992275,0433060001,SCENIC DRIVE PARK,90 RUTLAND RD,VENICE,34293,SARASOTA,NEIGHBORHOOD PARK / OPEN SPACE,0.0, , , ,SARASOTA COUNTY,COUNTY,PUBLIC, ,SARASOTA COUNTY,SARASOTA COUNTY,27.0753745216,-82.4279192546,17RLK5841595587,https://www.google.com/maps/place/17RLK5841595587,928,3.58,SCENIC DRIVE PARK,V,2012-08-23 00:00:00,2021-11-18 00:00:00,375
-82.3675025646574,27.076187577962152,0441040001,PLANTATION PARK,1570 CENTER RD,VENICE,34293,SARASOTA,NATURE PARK,0.0, , , ,SARASOTA COUNTY,COUNTY,PUBLIC, ,SARASOTA COUNTY,SARASOTA COUNTY,27.0761875787,-82.3675025657,17RLK6440795610,https://www.google.com/maps/place/17RLK6440795610,930,24.173,PLANTATION PARK,V,2016-06-17 00:00:00,2021-11-18 00:00:00,377
