Long,Lat,NCESID,NAME,ADDRESS,CITY,STATE,ZIP,ZIP4,TELEPHONE,TYPE,STATUS,POPULATION,COUNTY,COUNTYFIPS,COUNTRY,LATITUDE,LONGITUDE,NAICS_CODE,NAICS_DESC,SOURCE,SOURCE_DATE,VAL_METHOD,VAL_DATE,WEBSITE,LEVEL_,ENROLLMENT,ST_GRADE,END_GRADE,DISTRICTID,FT_TEACHERS,SHELTER_ID
-81.46792351199997,28.518985721000035,120000207976,FLORIDA VIRTUAL ELEMENTARY SCHOOL,2145 METROCENTER BLVD STE 100,ORLANDO,FL,32835,7642,(800) 374-1430,1,1,2725,ORANGE,12095,USA,28.5189857,-81.4679235,611110,ELEMENTARY AND SECONDARY SCHOOLS,https://nces.ed.gov/ccd/schoolsearch/school_list.asp?schoolid=120000207976,2024-01-31 00:00:00,IMAGERY/OTHER,2020-03-23 00:00:00,http://www.flvsft.com,ELEMENTARY,2600,KG,05,1200002,125,NOT AVAILABLE
-81.46779047199999,28.51913706700003,120000207982,FLORIDA VIRTUAL HIGH SCHOOL,2145 METROCENTER BLVD STE 200,ORLANDO,FL,32835,7642,(800) 374-1430,1,1,3704,ORANGE,12095,USA,28.5191371,-81.4677905,611110,ELEMENTARY AND SECONDARY SCHOOLS,https://nces.ed.gov/ccd/schoolsearch/school_list.asp?schoolid=120000207982,2024-01-31 00:00:00,IMAGERY/OTHER,2014-05-19 00:00:00,http://www.flvsft.com,HIGH,3572,09,12,1200002,132,NOT AVAILABLE
-81.46789482099996,28.519003526000063,120000208677,FLORIDA VIRTUAL MIDDLE SCHOOL,2145 METRO CENTER BLVD STE 100,ORLANDO,FL,32835,7642,(800) 374-1430,1,1,2484,ORANGE,12095,USA,28.5190035,-81.4678948,611110,ELEMENTARY AND SECONDARY SCHOOLS,https://nces.ed.gov/ccd/schoolsearch/school_list.asp?schoolid=120000208677,2024-01-31 00:00:00,IMAGERY/OTHER,2022-05-12 00:00:00,http://www.flvsft.com,MIDDLE,2387,06,08,1200002,97,NOT AVAILABLE
-82.34828580999994,29.656574540000065,120003000002,CAROLYN BEATRICE PARKER ELEMENTARY,1912 NW 5TH AVE,GAINESVILLE,FL,32603,1517,(352) 955-6705,1,1,535,ALACHUA,12001,USA,29.6565745,-82.3482858,611110,ELEMENTARY AND SECONDARY SCHOOLS,https://nces.ed.gov/ccd/schoolsearch/school_list.asp?schoolid=120003000002,2024-01-31 00:00:00,IMAGERY/OTHER,2016-03-08 00:00:00,http://www.sbac.edu/finley,ELEMENTARY,506,KG,05,1200030,29,NOT AVAILABLE
-82.33209562699994,29.687885572000027,120003000003,STEPHEN FOSTER ELEMENTARY SCHOOL,3800 NW 6TH ST,GAINESVILLE,FL,32609,2243,(352) 955-6706,1,1,487,ALACHUA,12001,USA,29.6878856,-82.3320956,611110,ELEMENTARY AND SECONDARY SCHOOLS,https://nces.ed.gov/ccd/schoolsearch/school_list.asp?schoolid=120003000003,2024-01-31 00:00:00,IMAGERY,2016-03-08 00:00:00,http://www.sbac.edu/foster,ELEMENTARY,458,KG,05,1200030,29,10793423
-82.33604736299998,29.657951216000072,120003000004,A.QUINN JONES CENTER,1108 NW 7TH AVE,GAINESVILLE,FL,32601,4949,(352) 955-6840,4,1,78,ALACHUA,12001,USA,29.6579512,-82.3360474,611110,ELEMENTARY AND SECONDARY SCHOOLS,https://nces.ed.gov/ccd/schoolsearch/school_list.asp?schoolid=120003000004,2024-01-31 00:00:00,IMAGERY,2010-05-31 00:00:00,http://www.sbac.edu/aqjones,HIGH,64,06,12,1200030,14,NOT AVAILABLE
-82.27155467199998,29.64767826900004,120003000005,LAKE FOREST ELEMENTARY SCHOOL,4401 SE 4TH AVE,GAINESVILLE,FL,32641,7612,(352) 955-6710,1,1,351,ALACHUA,12001,USA,29.6476783,-82.2715547,611110,ELEMENTARY AND SECONDARY SCHOOLS,https://nces.ed.gov/ccd/schoolsearch/school_list.asp?schoolid=120003000005,2024-01-31 00:00:00,IMAGERY,2016-03-08 00:00:00,http://www.sbac.edu/lakeforest,ELEMENTARY,330,PK,05,1200030,21,10793415
-82.32752263399999,29.66767896700003,120003000006,SIDNEY LANIER CENTER,312 NW 16TH AVE,GAINESVILLE,FL,32601,4205,(352) 955-6841,4,1,168,ALACHUA,12001,USA,29.667679,-82.3275226,611110,ELEMENTARY AND SECONDARY SCHOOLS,https://nces.ed.gov/ccd/schoolsearch/school_list.asp?schoolid=120003000006,2024-01-31 00:00:00,IMAGERY/OTHER,2016-03-08 00:00:00,http://www.sbac.edu/lanier,OTHER,149,KG,12,1200030,19,NOT AVAILABLE
-82.37373013899997,29.660279453000044,120003000007,LITTLEWOOD ELEMENTARY SCHOOL,812 NW 34TH ST,GAINESVILLE,FL,32605,5027,(352) 955-6712,1,1,753,ALACHUA,12001,USA,29.6602795,-82.3737301,611110,ELEMENTARY AND SECONDARY SCHOOLS,https://nces.ed.gov/ccd/schoolsearch/school_list.asp?schoolid=120003000007,2024-01-31 00:00:00,IMAGERY/OTHER,2016-03-08 00:00:00,http://www.sbac.edu/littlewood,ELEMENTARY,706,PK,05,1200030,47,10793417
-82.30945232299996,29.669256634000078,120003000008,W. A. METCALFE ELEMENTARY SCHOOL,1250 NE 18TH AVE,GAINESVILLE,FL,32609,3893,(352) 955-6713,1,1,504,ALACHUA,12001,USA,29.6692566,-82.3094523,611110,ELEMENTARY AND SECONDARY SCHOOLS,https://nces.ed.gov/ccd/schoolsearch/school_list.asp?schoolid=120003000008,2024-01-31 00:00:00,IMAGERY/OTHER,2016-03-08 00:00:00,http://www.sbac.edu/metcalfe,ELEMENTARY,478,PK,05,1200030,26,NOT AVAILABLE
-82.30906020799995,29.645281218000036,120003000009,JOSEPH WILLIAMS ELEMENTARY SCHOOL,1245 SE 7TH AVE,GAINESVILLE,FL,32641,7151,(352) 955-6719,1,1,493,ALACHUA,12001,USA,29.6452812,-82.3090602,611110,ELEMENTARY AND SECONDARY SCHOOLS,https://nces.ed.gov/ccd/schoolsearch/school_list.asp?schoolid=120003000009,2024-01-31 00:00:00,IMAGERY,2016-03-08 00:00:00,http://www.sbac.edu/williams,ELEMENTARY,469,KG,05,1200030,24,NOT AVAILABLE
-82.30898274999998,29.64211750800007,120003000010,ABRAHAM LINCOLN MIDDLE SCHOOL,1001 SE 12TH ST,GAINESVILLE,FL,32641,8101,(352) 955-6711,1,1,735,ALACHUA,12001,USA,29.6421175,-82.3089828,611110,ELEMENTARY AND SECONDARY SCHOOLS,https://nces.ed.gov/ccd/schoolsearch/school_list.asp?schoolid=120003000010,2024-01-31 00:00:00,IMAGERY,2016-03-08 00:00:00,http://www.sbac.edu/lincoln,MIDDLE,709,06,08,1200030,26,10793416
-82.31346608399997,29.669203622000055,120003000011,HOWARD W. BISHOP MIDDLE SCHOOL,1262 NW 31ST DRIVE,GAINESVILLE,FL,32605,NOT AVAILABLE,(352) 955-6701,1,1,853,ALACHUA,12001,USA,29.6692036,-82.3134661,611110,ELEMENTARY AND SECONDARY SCHOOLS,https://nces.ed.gov/ccd/schoolsearch/school_list.asp?schoolid=120003000011,2024-01-31 00:00:00,IMAGERY/OTHER,2016-03-08 00:00:00,http://www.sbac.edu/bishop,MIDDLE,823,06,08,1200030,30,10782822
-82.37051875899994,29.664404836000074,120003000012,WESTWOOD MIDDLE SCHOOL,3215 NW 15TH AVE,GAINESVILLE,FL,32605,5053,(352) 955-6718,1,1,876,ALACHUA,12001,USA,29.6644048,-82.3705188,611110,ELEMENTARY AND SECONDARY SCHOOLS,https://nces.ed.gov/ccd/schoolsearch/school_list.asp?schoolid=120003000012,2024-01-31 00:00:00,IMAGERY,2016-03-08 00:00:00,http://www.sbac.edu/westwood,MIDDLE,847,06,08,1200030,29,10793427
-82.34063223999993,29.669418929000074,120003000013,GAINESVILLE HIGH SCHOOL,1900 NW 13TH ST,GAINESVILLE,FL,32609,3411,(352) 955-6707,1,1,1936,ALACHUA,12001,USA,29.6694189,-82.3406322,611110,ELEMENTARY AND SECONDARY SCHOOLS,https://nces.ed.gov/ccd/schoolsearch/school_list.asp?schoolid=120003000013,2024-01-31 00:00:00,IMAGERY/OTHER,2016-03-08 00:00:00,http://www.sbac.edu/gainesville,HIGH,1873,09,12,1200030,63,10790696
-82.49240089499995,29.794607820000067,120003000014,ALACHUA ELEMENTARY SCHOOL,13800 NW 152ND PL,ALACHUA,FL,32615,4433,(386) 462-1841,1,1,326,ALACHUA,12001,USA,29.7946078,-82.4924009,611110,ELEMENTARY AND SECONDARY SCHOOLS,https://nces.ed.gov/ccd/schoolsearch/school_list.asp?schoolid=120003000014,2024-01-31 00:00:00,IMAGERY/OTHER,2016-03-08 00:00:00,http://www.sbac.edu/alachua,ELEMENTARY,326,03,05,1200030,-999,10796815
-82.52291320499995,29.52004790600006,120003000015,ARCHER ELEMENTARY,14533 SW 170TH ST,ARCHER,FL,32618,4621,(352) 495-2111,1,1,484,ALACHUA,12001,USA,29.5200479,-82.5229132,611110,ELEMENTARY AND SECONDARY SCHOOLS,https://nces.ed.gov/ccd/schoolsearch/school_list.asp?schoolid=120003000015,2024-01-31 00:00:00,IMAGERY/OTHER,2016-03-08 00:00:00,http://www.sbac.edu/archer,ELEMENTARY,457,PK,05,1200030,27,NOT AVAILABLE
-82.09386025299995,29.58956702200004,120003000016,HAWTHORNE MIDDLE/HIGH SCHOOL,21403 SE 69TH AVE,HAWTHORNE,FL,32640,NOT AVAILABLE,(352) 481-1900,1,1,472,ALACHUA,12001,USA,29.589567,-82.0938603,611110,ELEMENTARY AND SECONDARY SCHOOLS,https://nces.ed.gov/ccd/schoolsearch/school_list.asp?schoolid=120003000016,2024-01-31 00:00:00,IMAGERY/OTHER,2016-03-08 00:00:00,http://www.sbac.edu/hawthorne,HIGH,458,06,12,1200030,14,10790707
-82.35435084499994,29.697000912000078,120003000017,C. W. NORTON ELEMENTARY SCHOOL,2200 NW 45TH AVE,GAINESVILLE,FL,32605,1331,(352) 955-6765,1,1,633,ALACHUA,12001,USA,29.6970009,-82.3543508,611110,ELEMENTARY AND SECONDARY SCHOOLS,https://nces.ed.gov/ccd/schoolsearch/school_list.asp?schoolid=120003000017,2024-01-31 00:00:00,IMAGERY/OTHER,2016-03-08 00:00:00,http://www.sbac.edu/norton,ELEMENTARY,598,PK,05,1200030,35,10793420
-82.49323136699996,29.805293042000073,120003000018,A. L. MEBANE MIDDLE SCHOOL,16401 NW 140TH ST,ALACHUA,FL,32615,4422,(386) 462-1648,1,1,346,ALACHUA,12001,USA,29.805293,-82.4932314,611110,ELEMENTARY AND SECONDARY SCHOOLS,https://nces.ed.gov/ccd/schoolsearch/school_list.asp?schoolid=120003000018,2024-01-31 00:00:00,IMAGERY,2016-03-08 00:00:00,http://www.sbac.edu/mebane,MIDDLE,332,06,08,1200030,14,10793418
-82.61551245399994,29.642554333000078,120003000019,NEWBERRY HIGH SCHOOL,400 SW 258TH ST,NEWBERRY,FL,32669,4112,(352) 472-1101,1,1,755,ALACHUA,12001,USA,29.6425543,-82.6155125,611110,ELEMENTARY AND SECONDARY SCHOOLS,https://nces.ed.gov/ccd/schoolsearch/school_list.asp?schoolid=120003000019,2024-01-31 00:00:00,IMAGERY/OTHER,2016-03-08 00:00:00,http://www.sbac.edu/newberryhigh,HIGH,728,09,12,1200030,27,10793419
-82.52329592699994,29.806655247000037,120003000020,SANTA FE HIGH SCHOOL,16213 NW US HIGHWAY 441,ALACHUA,FL,32615,6399,(386) 462-1125,1,1,1154,ALACHUA,12001,USA,29.8066552,-82.5232959,611110,ELEMENTARY AND SECONDARY SCHOOLS,https://nces.ed.gov/ccd/schoolsearch/school_list.asp?schoolid=120003000020,2024-01-31 00:00:00,IMAGERY,2016-03-08 00:00:00,http://www.sbac.edu/santafe,HIGH,1154,09,12,1200030,-999,10792357
-82.09090566299994,29.593937706000077,120003000021,CHESTER SHELL ELEMENTARY SCHOOL,21633 SE 65TH AVE,HAWTHORNE,FL,32640,3518,(352) 481-1901,1,1,380,ALACHUA,12001,USA,29.5939377,-82.0909057,611110,ELEMENTARY AND SECONDARY SCHOOLS,https://nces.ed.gov/ccd/schoolsearch/school_list.asp?schoolid=120003000021,2024-01-31 00:00:00,IMAGERY/OTHER,2016-03-08 00:00:00,http://www.sbac.edu/shell,ELEMENTARY,355,PK,05,1200030,25,NOT AVAILABLE
-82.40768855999994,29.65544550100003,120003000023,MYRA TERWILLIGER ELEMENTARY SCHOOL,301 NW 62ND ST,GAINESVILLE,FL,32607,2003,(352) 955-6717,1,1,616,ALACHUA,12001,USA,29.6554455,-82.4076886,611110,ELEMENTARY AND SECONDARY SCHOOLS,https://nces.ed.gov/ccd/schoolsearch/school_list.asp?schoolid=120003000023,2024-01-31 00:00:00,IMAGERY/OTHER,2016-03-08 00:00:00,http://www.sbac.edu/terwilliger,ELEMENTARY,586,PK,05,1200030,30,10793425
-82.34824341399997,29.60977007200006,120003000024,IDYLWILD ELEMENTARY SCHOOL,1700 SE 35TH AVE,GAINESVILLE,FL,32641,NOT AVAILABLE,(352) 955-6709,1,1,561,ALACHUA,12001,USA,29.6097701,-82.3482434,611110,ELEMENTARY AND SECONDARY SCHOOLS,https://nces.ed.gov/ccd/schoolsearch/school_list.asp?schoolid=120003000024,2024-01-31 00:00:00,IMAGERY/OTHER,2016-03-08 00:00:00,http://www.sbac.edu/idylwild,ELEMENTARY,533,PK,05,1200030,28,10777501
-82.36471835799995,29.682395073000066,120003000025,GLEN SPRINGS ELEMENTARY SCHOOL,2826 NW 31ST AVE,GAINESVILLE,FL,32605,2241,(352) 955-6708,1,1,451,ALACHUA,12001,USA,29.6823951,-82.3647184,611110,ELEMENTARY AND SECONDARY SCHOOLS,https://nces.ed.gov/ccd/schoolsearch/school_list.asp?schoolid=120003000025,2024-01-31 00:00:00,IMAGERY/OTHER,2016-03-08 00:00:00,http://www.sbac.edu/glensprings,ELEMENTARY,426,KG,05,1200030,25,NOT AVAILABLE
-82.30682600399996,29.684305900000027,120003000026,MARJORIE KINNAN RAWLINGS ELEMENTARY SCHOOL,3500 NE 15TH ST,GAINESVILLE,FL,32609,2430,(352) 955-6715,1,1,430,ALACHUA,12001,USA,29.6843059,-82.306826,611110,ELEMENTARY AND SECONDARY SCHOOLS,https://nces.ed.gov/ccd/schoolsearch/school_list.asp?schoolid=120003000026,2024-01-31 00:00:00,IMAGERY/OTHER,2016-03-08 00:00:00,http://www.sbac.edu/rawlings,ELEMENTARY,402,PK,05,1200030,28,NOT AVAILABLE
-82.28684395299996,29.65563147900008,120003000027,PROFESSIONAL ACADEMY MAGNET AT LOFTEN HIGH SCHOOL,3000 E UNIVERSITY AVE,GAINESVILLE,FL,32641,6033,(352) 955-6839,1,1,285,ALACHUA,12001,USA,29.6556315,-82.286844,611110,ELEMENTARY AND SECONDARY SCHOOLS,https://nces.ed.gov/ccd/schoolsearch/school_list.asp?schoolid=120003000027,2024-01-31 00:00:00,IMAGERY,2019-02-17 00:00:00,http://www.sbac.edu/loften,OTHER,271,PK,12,1200030,14,NOT AVAILABLE
-82.26838181699998,29.640161042000045,120003000028,EASTSIDE HIGH SCHOOL,1201 SE 43RD ST,GAINESVILLE,FL,32641,7661,(352) 955-6704,1,1,1262,ALACHUA,12001,USA,29.640161,-82.2683818,611110,ELEMENTARY AND SECONDARY SCHOOLS,https://nces.ed.gov/ccd/schoolsearch/school_list.asp?schoolid=120003000028,2024-01-31 00:00:00,IMAGERY,2016-03-08 00:00:00,http://www.sbac.edu/eastside,HIGH,1220,09,12,1200030,42,10793413
-82.40212445999998,29.67861088500007,120003000029,F. W. BUCHHOLZ HIGH SCHOOL,5510 NW 27TH AVE,GAINESVILLE,FL,32606,6405,(352) 955-6702,1,1,2620,ALACHUA,12001,USA,29.6786109,-82.4021245,611110,ELEMENTARY AND SECONDARY SCHOOLS,https://nces.ed.gov/ccd/schoolsearch/school_list.asp?schoolid=120003000029,2024-01-31 00:00:00,IMAGERY,2016-03-08 00:00:00,http://www.sbac.edu/buchholz,HIGH,2540,05,12,1200030,80,10796816
-82.44174691599994,29.673220877000063,120003000032,FORT CLARKE MIDDLE SCHOOL,9301 NW 23RD AVE,GAINESVILLE,FL,32606,5115,(352) 333-2800,1,1,961,ALACHUA,12001,USA,29.6732209,-82.4417469,611110,ELEMENTARY AND SECONDARY SCHOOLS,https://nces.ed.gov/ccd/schoolsearch/school_list.asp?schoolid=120003000032,2024-01-31 00:00:00,IMAGERY/OTHER,2016-03-08 00:00:00,http://www.sbac.edu/fortclarke,MIDDLE,961,06,08,1200030,-999,10793414
-82.61391006299993,29.637758614000063,120003000033,NEWBERRY ELEMENTARY SCHOOL,25705 SW 15TH AVE,NEWBERRY,FL,32669,2554,(352) 472-1100,1,1,698,ALACHUA,12001,USA,29.6377586,-82.6139101,611110,ELEMENTARY AND SECONDARY SCHOOLS,https://nces.ed.gov/ccd/schoolsearch/school_list.asp?schoolid=120003000033,2024-01-31 00:00:00,IMAGERY,2010-05-31 00:00:00,http://www.sbac.edu/newberryelementary,ELEMENTARY,661,PK,04,1200030,37,NOT AVAILABLE
-82.49299938199994,29.77932173000005,120003000034,W. W. IRBY ELEMENTARY SCHOOL,13505 NW 140TH ST,ALACHUA,FL,32615,6110,(386) 462-5002,1,1,407,ALACHUA,12001,USA,29.7793217,-82.4929994,611110,ELEMENTARY AND SECONDARY SCHOOLS,https://nces.ed.gov/ccd/schoolsearch/school_list.asp?schoolid=120003000034,2024-01-31 00:00:00,IMAGERY/OTHER,2016-03-08 00:00:00,http://www.sbac.edu/irby,ELEMENTARY,379,PK,02,1200030,28,10782825
-82.60548596799998,29.64098750200003,120003000619,OAK VIEW MIDDLE SCHOOL,1203 SW 250TH ST,NEWBERRY,FL,32669,5238,(352) 472-1102,1,1,1006,ALACHUA,12001,USA,29.6409875,-82.605486,611110,ELEMENTARY AND SECONDARY SCHOOLS,https://nces.ed.gov/ccd/schoolsearch/school_list.asp?schoolid=120003000619,2024-01-31 00:00:00,IMAGERY,2016-03-08 00:00:00,http://www.sbac.edu/oakview,MIDDLE,964,05,08,1200030,42,10792332
-82.28154157999995,29.683026814000073,120003002107,ALACHUA REGIONAL JUVENILE DETENTION CENTER,3440 NE 39TH AVE,GAINESVILLE,FL,32609,2638,(352) 955-7895,4,2,-999,ALACHUA,12001,USA,29.6830268,-82.2815416,611110,ELEMENTARY AND SECONDARY SCHOOLS,https://nces.ed.gov/ccd/schoolsearch/school_list.asp?schoolid=120003002107,2024-01-31 00:00:00,IMAGERY,2010-05-31 00:00:00,http://www.sequelyouthservices.com,NOT REPORTED,-999,M,M,1200030,-999,NOT AVAILABLE
-82.42036570499994,29.61140937600004,120003002465,KIMBALL WILES ELEMENTARY SCHOOL,4601 SW 75TH ST,GAINESVILLE,FL,32608,4204,(352) 955-6955,1,1,910,ALACHUA,12001,USA,29.6114094,-82.4203657,611110,ELEMENTARY AND SECONDARY SCHOOLS,https://nces.ed.gov/ccd/schoolsearch/school_list.asp?schoolid=120003002465,2024-01-31 00:00:00,IMAGERY,2010-05-31 00:00:00,http://www.sbac.edu/wiles,ELEMENTARY,862,PK,05,1200030,48,10793405
-82.38738816599994,29.708011876000057,120003002466,WILLIAM S. TALBOT ELEM SCHOOL,5701 NW 43RD ST,GAINESVILLE,FL,32653,3331,(352) 955-6716,1,1,671,ALACHUA,12001,USA,29.7080119,-82.3873882,611110,ELEMENTARY AND SECONDARY SCHOOLS,https://nces.ed.gov/ccd/schoolsearch/school_list.asp?schoolid=120003002466,2024-01-31 00:00:00,IMAGERY/OTHER,2016-03-08 00:00:00,http://www.sbac.edu/talbot,ELEMENTARY,631,PK,05,1200030,40,10793424
-82.44070855099994,29.671433199000035,120003002588,HIDDEN OAK ELEMENTARY SCHOOL,2100 FORT CLARKE BLVD,GAINESVILLE,FL,32606,7107,(352) 333-2801,1,1,825,ALACHUA,12001,USA,29.6714332,-82.4407086,611110,ELEMENTARY AND SECONDARY SCHOOLS,https://nces.ed.gov/ccd/schoolsearch/school_list.asp?schoolid=120003002588,2024-01-31 00:00:00,IMAGERY/OTHER,2016-03-08 00:00:00,http://www.sbac.edu/hiddenoak,ELEMENTARY,775,PK,05,1200030,50,10790746
-82.30762343999999,29.68460281800003,120003002975,FEARNSIDE FAMILY SERVICES CENTER,3600 NE 15TH ST,GAINESVILLE,FL,32609,2484,(352) 955-6875,1,1,0,ALACHUA,12001,USA,29.6846028,-82.3076234,611110,ELEMENTARY AND SECONDARY SCHOOLS,https://nces.ed.gov/ccd/schoolsearch/school_list.asp?schoolid=120003002975,2024-01-31 00:00:00,IMAGERY,2010-05-31 00:00:00,http://www.sbac.edu/eldtpa,PREKINDERGARTEN,0,PK,PK,1200030,0,NOT AVAILABLE
-82.42069988499998,29.607529889000034,120003003022,KANAPAHA MIDDLE SCHOOL,5005 SW 75TH ST,GAINESVILLE,FL,32608,4430,(352) 955-6960,1,1,1140,ALACHUA,12001,USA,29.6075299,-82.4206999,611110,ELEMENTARY AND SECONDARY SCHOOLS,https://nces.ed.gov/ccd/schoolsearch/school_list.asp?schoolid=120003003022,2024-01-31 00:00:00,IMAGERY,2016-03-08 00:00:00,http://www.sbac.edu/kanapaha,MIDDLE,1094,06,08,1200030,46,10774457
-82.30117499999994,29.65128500000003,120003003141,HOSPITAL HOMEBOUND,1817 E UNIVERSITY AVE,GAINESVILLE,FL,32641,2629,(352) 955-7671,2,1,36,ALACHUA,12001,USA,29.651285,-82.301175,611110,ELEMENTARY AND SECONDARY SCHOOLS,https://nces.ed.gov/ccd/schoolsearch/school_list.asp?schoolid=120003003141,2024-01-31 00:00:00,IMAGERY/OTHER,2022-05-18 00:00:00,http://fl02219191.schoolwires.net/page/23,OTHER,36,KG,12,1200030,0,NOT AVAILABLE
-82.42167924299997,29.612030940000068,120003003143,WILES HEAD START,4556 SW 75TH ST,GAINESVILLE,FL,32608,4203,(352) 955-7010,1,1,0,ALACHUA,12001,USA,29.6120309,-82.4216792,611110,ELEMENTARY AND SECONDARY SCHOOLS,https://nces.ed.gov/ccd/schoolsearch/school_list.asp?schoolid=120003003143,2024-01-31 00:00:00,IMAGERY,2019-02-19 00:00:00,NOT AVAILABLE,PREKINDERGARTEN,0,PK,PK,1200030,0,NOT AVAILABLE
-82.30657199299998,29.68987301900006,120003003144,THE ONE ROOM SCHOOL HOUSE PROJECT,4180 NE 15TH ST,GAINESVILLE,FL,32609,2011,(352) 376-4014,1,1,188,ALACHUA,12001,USA,29.689873,-82.306572,611110,ELEMENTARY AND SECONDARY SCHOOLS,https://nces.ed.gov/ccd/schoolsearch/school_list.asp?schoolid=120003003144,2024-01-31 00:00:00,IMAGERY,2010-05-31 00:00:00,http://www.orsh.net/,ELEMENTARY,177,KG,06,1200030,11,NOT AVAILABLE
-82.28985416199998,29.504789852000044,120003003145,MICANOPY AREA COOPERATIVE SCHOOL INC.,802 NW SEMINARY AVE,MICANOPY,FL,32667,8500,(352) 466-0990,1,1,231,ALACHUA,12001,USA,29.5047899,-82.2898542,611110,ELEMENTARY AND SECONDARY SCHOOLS,https://nces.ed.gov/ccd/schoolsearch/school_list.asp?schoolid=120003003145,2024-01-31 00:00:00,IMAGERY/OTHER,2010-06-02 00:00:00,http://www.macschool.us/,ELEMENTARY,217,PK,05,1200030,14,NOT AVAILABLE
-82.27192824099996,29.68024424200007,120003003281,ALACHUA ACADEMY,3430 NE 39TH AVE,GAINESVILLE,FL,32609,2638,(352) 955-7895,4,2,-999,ALACHUA,12001,USA,29.6802442,-82.2719282,611110,ELEMENTARY AND SECONDARY SCHOOLS,https://nces.ed.gov/ccd/schoolsearch/school_list.asp?schoolid=120003003281,2024-01-31 00:00:00,IMAGERY/OTHER,2016-03-08 00:00:00,http://www.sequelyouthservices.com,NOT REPORTED,-999,M,M,1200030,-999,NOT AVAILABLE
-82.41365328899997,29.59988652800007,120003003282,AMIKIDS,6815 SW ARCHER RD,GAINESVILLE,FL,32608,4720,(352) 336-4657,4,1,26,ALACHUA,12001,USA,29.5998865,-82.4136533,611110,ELEMENTARY AND SECONDARY SCHOOLS,https://nces.ed.gov/ccd/schoolsearch/school_list.asp?schoolid=120003003282,2024-01-31 00:00:00,IMAGERY/OTHER,2019-09-30 00:00:00,http://amikids-gainesville.org,HIGH,26,06,12,1200030,0,NOT AVAILABLE
-82.31301080699996,29.648699991000058,120003003283,PACE,1010 SE 4TH AVE,GAINESVILLE,FL,32601,6907,(352) 374-8799,4,1,50,ALACHUA,12001,USA,29.6487,-82.3130108,611110,ELEMENTARY AND SECONDARY SCHOOLS,https://nces.ed.gov/ccd/schoolsearch/school_list.asp?schoolid=120003003283,2024-01-31 00:00:00,IMAGERY/OTHER,2016-03-08 00:00:00,http://www.pacecenter.org/alachua,HIGH,50,06,12,1200030,0,NOT AVAILABLE
-82.31540866599994,29.633707827000023,120003003285,CARING & SHARING LEARNING SCHOOL,1951 SE 4TH ST,GAINESVILLE,FL,32641,8718,(352) 372-1004,1,1,271,ALACHUA,12001,USA,29.6337078,-82.3154087,611110,ELEMENTARY AND SECONDARY SCHOOLS,https://nces.ed.gov/ccd/schoolsearch/school_list.asp?schoolid=120003003285,2024-01-31 00:00:00,IMAGERY,2010-05-31 00:00:00,http://caringandsharingschool.com,ELEMENTARY,255,PK,06,1200030,16,NOT AVAILABLE
-82.44455945199996,29.628193809000038,120003003530,LAWTON M. CHILES ELEMENTARY SCHOOL,2525 SCHOOL HOUSE RD,GAINESVILLE,FL,32608,8645,(352) 333-2825,1,1,791,ALACHUA,12001,USA,29.6281938,-82.4445595,611110,ELEMENTARY AND SECONDARY SCHOOLS,https://nces.ed.gov/ccd/schoolsearch/school_list.asp?schoolid=120003003530,2024-01-31 00:00:00,IMAGERY/OTHER,2016-03-08 00:00:00,http://www.sbac.edu/chiles,ELEMENTARY,749,PK,05,1200030,42,10782826
-82.40630236699997,29.607271788000048,120003003532,THE EINSTEIN SCHOOL INC.,5910 SW ARCHER RD,GAINESVILLE,FL,32608,4702,(352) 335-4321,4,1,109,ALACHUA,12001,USA,29.6072718,-82.4063024,611110,ELEMENTARY AND SECONDARY SCHOOLS,https://nces.ed.gov/ccd/schoolsearch/school_list.asp?schoolid=120003003532,2024-01-31 00:00:00,IMAGERY/OTHER,2016-03-08 00:00:00,http://www.emschool.org/,MIDDLE,102,02,08,1200030,7,NOT AVAILABLE
-82.34173307099996,29.602956208000023,120003003533,EXPRESSIONS LEARNING ARTS ACADEMY,5408 SW 13TH ST,GAINESVILLE,FL,32608,5038,(352) 373-5223,1,1,92,ALACHUA,12001,USA,29.6029562,-82.3417331,611110,ELEMENTARY AND SECONDARY SCHOOLS,https://nces.ed.gov/ccd/schoolsearch/school_list.asp?schoolid=120003003533,2024-01-31 00:00:00,IMAGERY/OTHER,2016-03-08 00:00:00,http://www.expressionsacademy.org/,ELEMENTARY,84,KG,05,1200030,8,NOT AVAILABLE
-82.46464770399996,29.813752751000038,120003003534,ALACHUA LEARNING ACADEMY ELEMENTARY,11100 W STATE ROAD 235,ALACHUA,FL,32615,NOT AVAILABLE,(386) 418-2080,1,1,114,ALACHUA,12001,USA,29.8137528,-82.4646477,611110,ELEMENTARY AND SECONDARY SCHOOLS,https://nces.ed.gov/ccd/schoolsearch/school_list.asp?schoolid=120003003534,2024-01-31 00:00:00,IMAGERY/OTHER,2019-12-29 00:00:00,http://alachualearningcenter.com/,ELEMENTARY,108,KG,05,1200030,6,NOT AVAILABLE
-82.28655200199995,29.509151665000047,120003003811,MICANOPY ACADEMY,708 NW OKEHUMKEE,MICANOPY,FL,32667,NOT AVAILABLE,(352) 466-1090,1,1,92,ALACHUA,12001,USA,29.5091517,-82.286552,611110,ELEMENTARY AND SECONDARY SCHOOLS,https://nces.ed.gov/ccd/schoolsearch/school_list.asp?schoolid=120003003811,2024-01-31 00:00:00,IMAGERY,2010-05-31 00:00:00,http://micanopyacademy.com/,HIGH,88,06,12,1200030,4,NOT AVAILABLE
-82.48658342299996,29.654362435000053,120003003981,HEALTHY LEARNING ACADEMY CHARTER SCHOOL,13505 WEST NEWBERRY RD,NEWBERRY,FL,32669,2752,(352) 372-2279,1,1,114,ALACHUA,12001,USA,29.6543624,-82.4865834,611110,ELEMENTARY AND SECONDARY SCHOOLS,https://nces.ed.gov/ccd/schoolsearch/school_list.asp?schoolid=120003003981,2024-01-31 00:00:00,IMAGERY/OTHER,2019-09-26 00:00:00,http://www.healthylearningacademy.com/,ELEMENTARY,107,KG,05,1200030,7,NOT AVAILABLE
-82.58955130199996,29.83420704200006,120003003989,HIGH SPRINGS COMMUNITY SCHOOL,1015 N MAIN ST,HIGH SPRINGS,FL,32643,8904,(386) 454-1958,1,1,1026,ALACHUA,12001,USA,29.834207,-82.5895513,611110,ELEMENTARY AND SECONDARY SCHOOLS,https://nces.ed.gov/ccd/schoolsearch/school_list.asp?schoolid=120003003989,2024-01-31 00:00:00,IMAGERY,2010-05-31 00:00:00,http://www.sbac.edu/highsprings,ELEMENTARY,974,PK,08,1200030,52,10782824
-82.41784760199994,29.662492792000023,120003004047,SIATECH MYCROSCHOOL INC.,7022 NW 10TH PL,GAINESVILLE,FL,32605,3147,(352) 333-7952,4,1,132,ALACHUA,12001,USA,29.6624928,-82.4178476,611110,ELEMENTARY AND SECONDARY SCHOOLS,https://nces.ed.gov/ccd/schoolsearch/school_list.asp?schoolid=120003004047,2024-01-31 00:00:00,IMAGERY,2019-02-17 00:00:00,http://www.siatechschools.org/schools/florida-charter-schools/gainesville-chart,HIGH,131,09,12,1200030,1,NOT AVAILABLE
-82.28145575599996,29.680000137000036,120003007045,ALACHUA COUNTY JAIL,3333 NE 39TH AVE,GAINESVILLE,FL,32609,2639,(352) 955-2160,4,1,0,ALACHUA,12001,USA,29.6800001,-82.2814558,611110,ELEMENTARY AND SECONDARY SCHOOLS,https://nces.ed.gov/ccd/schoolsearch/school_list.asp?schoolid=120003007045,2024-01-31 00:00:00,IMAGERY,2010-05-31 00:00:00,http://www.sbac.edu/pages/acps,HIGH,0,06,12,1200030,0,NOT AVAILABLE
-82.31904849999995,29.652622705000056,120003007696,ALACHUA VIRTUAL INSTRUCTION PROGRAM,2802 NE 8TH AVE,GAINESVILLE,FL,32641,4836,(352) 955-7584,1,1,0,ALACHUA,12001,USA,29.6526227,-82.3190485,611110,ELEMENTARY AND SECONDARY SCHOOLS,https://nces.ed.gov/ccd/schoolsearch/school_list.asp?schoolid=120003007696,2024-01-31 00:00:00,IMAGERY,2019-02-17 00:00:00,http://www.sbac.edu/aes,OTHER,0,KG,12,1200030,0,NOT AVAILABLE
-82.31864363599999,29.652609961000053,120003007945,ALACHUA ESCHOOL (VIRTUAL FRANCHISE),2802 NE 8TH AVE,GAINESVILLE,FL,32641,4836,(352) 955-7584,1,1,246,ALACHUA,12001,USA,29.65261,-82.3186436,611110,ELEMENTARY AND SECONDARY SCHOOLS,https://nces.ed.gov/ccd/schoolsearch/school_list.asp?schoolid=120003007945,2024-01-31 00:00:00,IMAGERY,2014-05-19 00:00:00,http://www.sbac.edu/aes,HIGH,242,06,12,1200030,4,NOT AVAILABLE
-82.33782741699997,29.672878973000024,120003007948,NORTH CENTRAL FLORIDA PUBLIC CHARTER SCHOOL,1000 NE 16TH BLVD BLDG C,GAINESVILLE,FL,32601,4541,(352) 379-2902,4,1,189,ALACHUA,12001,USA,29.672879,-82.3378274,611110,ELEMENTARY AND SECONDARY SCHOOLS,https://nces.ed.gov/ccd/schoolsearch/school_list.asp?schoolid=120003007948,2024-01-31 00:00:00,IMAGERY/OTHER,2020-03-03 00:00:00,http://ncfcharter.org,HIGH,184,08,12,1200030,5,NOT AVAILABLE
-82.46442627099998,29.813860956000042,120003007954,ALACHUA LEARNING ACADEMY MIDDLE,11100 W STATE ROAD 235,ALACHUA,FL,32615,NOT AVAILABLE,(386) 418-2080,1,1,63,ALACHUA,12001,USA,29.813861,-82.4644263,611110,ELEMENTARY AND SECONDARY SCHOOLS,https://nces.ed.gov/ccd/schoolsearch/school_list.asp?schoolid=120003007954,2024-01-31 00:00:00,IMAGERY/OTHER,2014-05-19 00:00:00,http://www.alachualearningcenter.com,MIDDLE,59,06,08,1200030,4,NOT AVAILABLE
-82.46234289599994,29.68773014800007,120003008203,MEADOWBROOK ELEMENTARY SCHOOL,11525 NW 39TH AVE,GAINESVILLE,FL,32606,4906,(352) 333-2828,1,1,896,ALACHUA,12001,USA,29.6877301,-82.4623429,611110,ELEMENTARY AND SECONDARY SCHOOLS,https://nces.ed.gov/ccd/schoolsearch/school_list.asp?schoolid=120003008203,2024-01-31 00:00:00,IMAGERY/OTHER,2015-06-23 00:00:00,http://www.sbac.edu/meadowbrook,ELEMENTARY,848,KG,05,1200030,48,NOT AVAILABLE
-82.31910703499994,29.652679136000074,120003008285,ALACHUA VIRTUAL INSTRUCTION PROGRAM (DISTRICT PROVIDED),2802 NE 8TH AVE,GAINESVILLE,FL,32641,4836,(352) 955-7584,1,1,77,ALACHUA,12001,USA,29.6526791,-82.319107,611110,ELEMENTARY AND SECONDARY SCHOOLS,https://nces.ed.gov/ccd/schoolsearch/school_list.asp?schoolid=120003008285,2024-01-31 00:00:00,IMAGERY,2016-01-14 00:00:00,http://www.sbac.edu/aes,ELEMENTARY,76,PK,05,1200030,1,NOT AVAILABLE
-82.30835194399998,29.67333459300005,120003008358,BOULWARE SPRINGS CHARTER,1303 NE 23RD AVE,GAINESVILLE,FL,32609,NOT AVAILABLE,(352) 244-9732,1,1,170,ALACHUA,12001,USA,29.6733346,-82.3083519,611110,ELEMENTARY AND SECONDARY SCHOOLS,https://nces.ed.gov/ccd/schoolsearch/school_list.asp?schoolid=120003008358,2024-01-31 00:00:00,IMAGERY/OTHER,2018-01-10 00:00:00,http://www.boulwarecharter.com/,ELEMENTARY,158,KG,05,1200030,12,NOT AVAILABLE
-82.29734510999998,29.660054900000034,120003008485,EARLY LEARNING ACADEMY AT DUVAL,2106 NE 8TH AVE,GAINESVILLE,FL,32641,NOT AVAILABLE,(352) 955-6703,1,1,0,ALACHUA,12001,USA,29.6600549,-82.2973451,611110,ELEMENTARY AND SECONDARY SCHOOLS,https://nces.ed.gov/ccd/schoolsearch/school_list.asp?schoolid=120003008485,2024-01-31 00:00:00,IMAGERY,2018-10-22 00:00:00,http://www.sbac.edu/duval,ELEMENTARY,0,PK,KG,1200030,0,NOT AVAILABLE
-82.31422687899999,29.667975242000068,120003008516,RESILIENCE CHARTER SCHOOL INC,1717 NE 9TH ST,GAINESVILLE,FL,32609,3738,(352) 745-3690,1,1,125,ALACHUA,12001,USA,29.6679752,-82.3142269,611110,ELEMENTARY AND SECONDARY SCHOOLS,https://nces.ed.gov/ccd/schoolsearch/school_list.asp?schoolid=120003008516,2024-01-31 00:00:00,IMAGERY/OTHER,2019-08-13 00:00:00,http://resiliencecharter.org,MIDDLE,120,06,08,1200030,5,NOT AVAILABLE
-82.43640676799998,29.682787767000036,120003008900,SANTA FE COLLEGE HIGH SCHOOL DUAL ENROLLMENT,3000 NW 83RD ST,GAINESVILLE,FL,32606,NOT AVAILABLE,(352) 395-5490,1,1,0,ALACHUA,12001,USA,29.6827878,-82.4364068,611110,ELEMENTARY AND SECONDARY SCHOOLS,https://nces.ed.gov/ccd/schoolsearch/school_list.asp?schoolid=120003008900,2024-01-31 00:00:00,IMAGERY/OTHER,2022-05-12 00:00:00,http://www.sfcollege.edu/hsde,HIGH,0,11,12,1200030,0,NOT AVAILABLE
-82.27195099999994,29.68028520000007,120003010619,CHALLENGE AT ALACHUA ACADEMY,3430 NE 39TH AVE,GAINESVILLE,FL,32609,NOT AVAILABLE,(352) 872-5152,4,4,16,ALACHUA,12001,USA,29.6802852,-82.271951,611110,ELEMENTARY AND SECONDARY SCHOOLS,https://nces.ed.gov/ccd/schoolsearch/school_list.asp?schoolid=120003010619,2024-01-31 00:00:00,IMAGERY/OTHER,2024-02-28 00:00:00,NOT AVAILABLE,HIGH,16,06,12,1200030,0,NOT AVAILABLE
-82.27139891699994,29.678745762000062,120003010620,ALACHUA REGIONAL JUEVNILE DETENTION CENTER,3434 NE 39TH AVE,GAINESVILLE,FL,32609,NOT AVAILABLE,(352) 955-2105,4,4,32,ALACHUA,12001,USA,29.6787458,-82.2713989,611110,ELEMENTARY AND SECONDARY SCHOOLS,https://nces.ed.gov/ccd/schoolsearch/school_list.asp?schoolid=120003010620,2024-01-31 00:00:00,IMAGERY,2024-03-05 00:00:00,NOT AVAILABLE,HIGH,32,06,12,1200030,0,NOT AVAILABLE
-82.15409281899997,30.282225976000063,120006000035,BAKER COUNTY SENIOR HIGH SCHOOL,1 WILDCAT DR,GLEN ST MARY,FL,32040,4208,(904) 259-6286,1,1,1496,BAKER,12003,USA,30.282226,-82.1540928,611110,ELEMENTARY AND SECONDARY SCHOOLS,https://nces.ed.gov/ccd/schoolsearch/school_list.asp?schoolid=120006000035,2024-01-31 00:00:00,IMAGERY/OTHER,2016-03-08 00:00:00,http://www.bakerk12.org,HIGH,1425,09,12,1200060,71,NOT AVAILABLE
-82.13035664199998,30.297473479000075,120006000036,MACCLENNY ELEMENTARY SCHOOL,1 WILD KITTEN DR,MACCLENNY,FL,32063,4198,(904) 259-2551,1,1,654,BAKER,12003,USA,30.2974735,-82.1303566,611110,ELEMENTARY AND SECONDARY SCHOOLS,https://nces.ed.gov/ccd/schoolsearch/school_list.asp?schoolid=120006000036,2024-01-31 00:00:00,IMAGERY,2010-06-14 00:00:00,http://www.bakerk12.org,ELEMENTARY,615,01,03,1200060,39,10792419
-82.11902417399995,30.275296326000046,120006000037,BAKER COUNTY MIDDLE SCHOOL,211 E JONATHAN ST,MACCLENNY,FL,32063,2703,(904) 259-2226,1,1,1172,BAKER,12003,USA,30.2752963,-82.1190242,611110,ELEMENTARY AND SECONDARY SCHOOLS,https://nces.ed.gov/ccd/schoolsearch/school_list.asp?schoolid=120006000037,2024-01-31 00:00:00,IMAGERY,2016-03-08 00:00:00,http://www.bakerk12.org,MIDDLE,1102,04,08,1200060,70,NOT AVAILABLE
-82.15820838099995,30.280957228000034,120006000038,WESTSIDE ELEMENTARY SCHOOL,1 PANTHER CIR,GLEN ST MARY,FL,32040,4220,(904) 259-2216,1,1,573,BAKER,12003,USA,30.2809572,-82.1582084,611110,ELEMENTARY AND SECONDARY SCHOOLS,https://nces.ed.gov/ccd/schoolsearch/school_list.asp?schoolid=120006000038,2024-01-31 00:00:00,IMAGERY/OTHER,2016-03-08 00:00:00,http://www.bakerk12.org,ELEMENTARY,544,01,03,1200060,29,NOT AVAILABLE
-82.12847472399994,30.277022282000075,120006002647,J FRANKLYN KELLER INTERMEDIATE SCHOOL,420 S 8TH ST,MACCLENNY,FL,32063,2328,(904) 259-4244,1,1,756,BAKER,12003,USA,30.2770223,-82.1284747,611110,ELEMENTARY AND SECONDARY SCHOOLS,https://nces.ed.gov/ccd/schoolsearch/school_list.asp?schoolid=120006002647,2024-01-31 00:00:00,IMAGERY,2016-03-08 00:00:00,http://www.bakerk12.org,ELEMENTARY,723,04,05,1200060,33,NOT AVAILABLE
-82.11645391999997,30.27604841400006,120006005427,PREK/KINDERGARTEN CENTER,362 SOUTH BLVD E,MACCLENNY,FL,32063,2540,(904) 259-0405,1,1,624,BAKER,12003,USA,30.2760484,-82.1164539,611110,ELEMENTARY AND SECONDARY SCHOOLS,https://nces.ed.gov/ccd/schoolsearch/school_list.asp?schoolid=120006005427,2024-01-31 00:00:00,IMAGERY,2010-06-14 00:00:00,http://www.bakerk12.org,ELEMENTARY,592,PK,KG,1200060,32,NOT AVAILABLE
-82.11659335899998,30.27717415400008,120006007718,BAKER VIRTUAL INSTRUCTION PROGRAM,270 S BLVD E,MACCLENNY,FL,32063,2704,(904) 259-0429,1,1,0,BAKER,12003,USA,30.2771742,-82.1165934,611110,ELEMENTARY AND SECONDARY SCHOOLS,https://nces.ed.gov/ccd/schoolsearch/school_list.asp?schoolid=120006007718,2024-01-31 00:00:00,IMAGERY,2011-09-29 00:00:00,http://www.bakerk12.org,ELEMENTARY,0,KG,05,1200060,0,NOT AVAILABLE
-82.11662937499995,30.277137199000038,120006007873,BAKER COUNTY VIRTUAL FRANCHISE,270 S BLVD E,MACCLENNY,FL,32063,2128,(904) 259-0429,1,1,2,BAKER,12003,USA,30.2771372,-82.1166294,611110,ELEMENTARY AND SECONDARY SCHOOLS,https://nces.ed.gov/ccd/schoolsearch/school_list.asp?schoolid=120006007873,2024-01-31 00:00:00,GEOCODE,2012-11-12 00:00:00,http://www.bakerk12.org,OTHER,2,03,12,1200060,0,NOT AVAILABLE
-82.11709829399996,30.274298999000052,120006007975,BAKER VIRTUAL INSTRUCTION PROGRAM (DISTRICT PROVIDED),270 S BLVD E,MACCLENNY,FL,32063,2128,(904) 259-0401,1,1,0,BAKER,12003,USA,30.274299,-82.1170983,611110,ELEMENTARY AND SECONDARY SCHOOLS,https://nces.ed.gov/ccd/schoolsearch/school_list.asp?schoolid=120006007975,2024-01-31 00:00:00,GEOCODE,2014-05-19 00:00:00,http://www.bakerk12.org,ELEMENTARY,0,KG,05,1200060,0,NOT AVAILABLE
-82.14311099999998,30.237504000000058,120006010621,LEGACY ELEMENTARY SCHOOL,1 LIONS DEN DRIVE,MACCLENNY,FL,32063,NOT AVAILABLE,(904) 259-0300,1,7,-999,BAKER,12003,USA,30.237504,-82.143111,611110,ELEMENTARY AND SECONDARY SCHOOLS,https://nces.ed.gov/ccd/schoolsearch/school_list.asp?schoolid=120006010621,2024-01-31 00:00:00,IMAGERY/OTHER,2024-02-28 00:00:00,http://www.bakerk12.org,NOT REPORTED,-999,M,M,1200060,-999,NOT AVAILABLE
-81.68629299999998,30.41298000000006,120008410710,IDEA BASSETT,1845 BASSETT RD,JACKSONVILLE,FL,32208,NOT AVAILABLE,(904) 412-5160,1,4,432,DUVAL,12031,USA,30.41298,-81.686293,611110,ELEMENTARY AND SECONDARY SCHOOLS,https://nces.ed.gov/ccd/schoolsearch/school_list.asp?schoolid=120008410710,2024-01-31 00:00:00,IMAGERY/OTHER,2024-02-28 00:00:00,http://ideapublicsschools.org/our-schools/idea-bassett/,OTHER,407,KG,12,1200084,25,NOT AVAILABLE
-81.60305879999999,30.346623100000045,120008410711,IDEA RIVER BLUFF,2354 UNIVERSITY BLVD. N,JACKSONVILLE,FL,32211,NOT AVAILABLE,(904) 412-5160,1,4,330,DUVAL,12031,USA,30.3466231,-81.6030588,611110,ELEMENTARY AND SECONDARY SCHOOLS,https://nces.ed.gov/ccd/schoolsearch/school_list.asp?schoolid=120008410711,2024-01-31 00:00:00,IMAGERY/OTHER,2024-02-28 00:00:00,http://ideapublicsschools.org/our-schools/idea-river-bluff/,OTHER,303,KG,12,1200084,27,NOT AVAILABLE
-82.45325729999996,28.053936600000043,120008410712,IDEA VICTORY,11612 N NEBRASKA AVE,TAMPA,FL,33612,NOT AVAILABLE,(813) 461-6650,1,4,870,HILLSBOROUGH,12057,USA,28.0539366,-82.4532573,611110,ELEMENTARY AND SECONDARY SCHOOLS,https://nces.ed.gov/ccd/schoolsearch/school_list.asp?schoolid=120008410712,2024-01-31 00:00:00,IMAGERY/OTHER,2024-02-28 00:00:00,NOT AVAILABLE,OTHER,830,KG,12,1200084,40,NOT AVAILABLE
-82.39945999999998,27.96404700000005,120008410714,IDEA HOPE,5050 E 10TH AVE,TAMPA,FL,33619,NOT AVAILABLE,(813) 755-4690,1,4,834,HILLSBOROUGH,12057,USA,27.964047,-82.39946,611110,ELEMENTARY AND SECONDARY SCHOOLS,https://nces.ed.gov/ccd/schoolsearch/school_list.asp?schoolid=120008410714,2024-01-31 00:00:00,IMAGERY/OTHER,2024-02-28 00:00:00,NOT AVAILABLE,OTHER,794,KG,12,1200084,40,NOT AVAILABLE
-85.65944792699997,30.17029566900004,120009000039,BAY HIGH SCHOOL,1200 HARRISON AVE,PANAMA CITY,FL,32401,2433,(850) 767-4600,1,1,1304,BAY,12005,USA,30.1702957,-85.6594479,611110,ELEMENTARY AND SECONDARY SCHOOLS,https://nces.ed.gov/ccd/schoolsearch/school_list.asp?schoolid=120009000039,2024-01-31 00:00:00,IMAGERY/OTHER,2011-10-24 00:00:00,NOT AVAILABLE,HIGH,1255,09,12,1200090,49,10777898
-85.83711673199997,30.199560012000063,120009000040,HUTCHISON BEACH ELEMENTARY SCHOOL,12900 MIDDLE BEACH RD,PANAMA CITY,FL,32407,2919,(850) 767-5195,1,1,660,BAY,12005,USA,30.19956,-85.8371167,611110,ELEMENTARY AND SECONDARY SCHOOLS,https://nces.ed.gov/ccd/schoolsearch/school_list.asp?schoolid=120009000040,2024-01-31 00:00:00,IMAGERY/OTHER,2010-06-15 00:00:00,NOT AVAILABLE,ELEMENTARY,621,KG,05,1200090,39,NOT AVAILABLE
-85.62202146499999,30.17429311400008,120009000041,CEDAR GROVE ELEMENTARY SCHOOL,2826 E 15TH ST,PANAMA CITY,FL,32405,6356,(850) 767-4550,1,1,595,BAY,12005,USA,30.1742931,-85.6220215,611110,ELEMENTARY AND SECONDARY SCHOOLS,https://nces.ed.gov/ccd/schoolsearch/school_list.asp?schoolid=120009000041,2024-01-31 00:00:00,IMAGERY/OTHER,2010-06-16 00:00:00,NOT AVAILABLE,ELEMENTARY,562,PK,05,1200090,33,NOT AVAILABLE
-85.56898497899994,30.153535497000064,120009000042,CALLAWAY ELEMENTARY SCHOOL,7115 E HIGHWAY 22,PANAMA CITY,FL,32404,2373,(850) 767-1241,1,1,540,BAY,12005,USA,30.1535355,-85.568985,611110,ELEMENTARY AND SECONDARY SCHOOLS,https://nces.ed.gov/ccd/schoolsearch/school_list.asp?schoolid=120009000042,2024-01-31 00:00:00,IMAGERY/OTHER,2010-06-15 00:00:00,NOT AVAILABLE,ELEMENTARY,511,PK,05,1200090,29,10793457
-85.64556401799996,30.146760517000075,120009000043,MERRIAM CHERRY STREET ELEMENTARY,1125 CHERRY ST,PANAMA CITY,FL,32401,3880,(850) 767-1480,1,1,386,BAY,12005,USA,30.1467605,-85.645564,611110,ELEMENTARY AND SECONDARY SCHOOLS,https://nces.ed.gov/ccd/schoolsearch/school_list.asp?schoolid=120009000043,2024-01-31 00:00:00,IMAGERY/OTHER,2010-06-15 00:00:00,NOT AVAILABLE,ELEMENTARY,362,PK,05,1200090,24,NOT AVAILABLE
-85.70700518899997,30.18327221100003,120009000045,LUCILLE MOORE ELEMENTARY SCHOOL,1900 MICHIGAN AVE,PANAMA CITY,FL,32405,1532,(850) 767-1428,1,1,538,BAY,12005,USA,30.1832722,-85.7070052,611110,ELEMENTARY AND SECONDARY SCHOOLS,https://nces.ed.gov/ccd/schoolsearch/school_list.asp?schoolid=120009000045,2024-01-31 00:00:00,IMAGERY/OTHER,2010-06-15 00:00:00,NOT AVAILABLE,ELEMENTARY,503,PK,05,1200090,35,NOT AVAILABLE
-85.62886634799997,30.202929794000056,120009000047,HILAND PARK ELEMENTARY SCHOOL,2507 E BALDWIN RD,PANAMA CITY,FL,32405,5805,(850) 767-4685,1,1,676,BAY,12005,USA,30.2029298,-85.6288663,611110,ELEMENTARY AND SECONDARY SCHOOLS,https://nces.ed.gov/ccd/schoolsearch/school_list.asp?schoolid=120009000047,2024-01-31 00:00:00,IMAGERY/OTHER,2010-06-16 00:00:00,NOT AVAILABLE,ELEMENTARY,643,PK,05,1200090,33,10793458
-85.66823355299994,30.16879540000008,120009000048,JINKS MIDDLE SCHOOL,600 W 11TH ST,PANAMA CITY,FL,32401,2332,(850) 767-4695,1,1,604,BAY,12005,USA,30.1687954,-85.6682336,611110,ELEMENTARY AND SECONDARY SCHOOLS,https://nces.ed.gov/ccd/schoolsearch/school_list.asp?schoolid=120009000048,2024-01-31 00:00:00,IMAGERY/OTHER,2010-06-16 00:00:00,NOT AVAILABLE,MIDDLE,570,06,08,1200090,34,NOT AVAILABLE
-85.65176061399995,30.24466214000006,120009000049,LYNN HAVEN ELEMENTARY SCHOOL,301 W 9TH ST,LYNN HAVEN,FL,32444,2317,(850) 767-1454,1,1,737,BAY,12005,USA,30.2446621,-85.6517606,611110,ELEMENTARY AND SECONDARY SCHOOLS,https://nces.ed.gov/ccd/schoolsearch/school_list.asp?schoolid=120009000049,2024-01-31 00:00:00,IMAGERY/OTHER,2010-06-15 00:00:00,http://lynnhaven.bay.k12.fl.us/,ELEMENTARY,699,PK,05,1200090,38,10793459
-85.60024212699994,30.13607445300005,120009000052,PARKER ELEMENTARY SCHOOL,640 S HIGHWAY 22 A,PANAMA CITY,FL,32404,6824,(850) 767-4570,1,1,525,BAY,12005,USA,30.1360745,-85.6002421,611110,ELEMENTARY AND SECONDARY SCHOOLS,https://nces.ed.gov/ccd/schoolsearch/school_list.asp?schoolid=120009000052,2024-01-31 00:00:00,IMAGERY/OTHER,2010-06-16 00:00:00,NOT AVAILABLE,ELEMENTARY,496,PK,05,1200090,29,NOT AVAILABLE
-85.64166147799995,30.288260656000034,120009000053,SOUTHPORT ELEMENTARY SCHOOL,1835 BRIDGE ST,SOUTHPORT,FL,32409,1325,(850) 767-1636,1,1,533,BAY,12005,USA,30.2882607,-85.6416615,611110,ELEMENTARY AND SECONDARY SCHOOLS,https://nces.ed.gov/ccd/schoolsearch/school_list.asp?schoolid=120009000053,2024-01-31 00:00:00,IMAGERY/OTHER,2010-06-15 00:00:00,NOT AVAILABLE,ELEMENTARY,506,PK,05,1200090,27,NOT AVAILABLE
-85.70221104499996,30.174938117000067,120009000055,ST. ANDREW SCHOOL AT OAKLAND TERRACE,2010 W 12TH ST,PANAMA CITY,FL,32401,1850,(850) 767-4595,4,1,113,BAY,12005,USA,30.1749381,-85.702211,611110,ELEMENTARY AND SECONDARY SCHOOLS,https://nces.ed.gov/ccd/schoolsearch/school_list.asp?schoolid=120009000055,2024-01-31 00:00:00,IMAGERY/OTHER,2010-06-15 00:00:00,NOT AVAILABLE,ELEMENTARY,94,PK,05,1200090,19,NOT AVAILABLE
-85.44069688099995,30.366369225000028,120009000056,WALLER ELEMENTARY SCHOOL,11332 E HIGHWAY 388,YOUNGSTOWN,FL,32466,3043,(850) 764-4341,1,1,467,BAY,12005,USA,30.3663692,-85.4406969,611110,ELEMENTARY AND SECONDARY SCHOOLS,https://nces.ed.gov/ccd/schoolsearch/school_list.asp?schoolid=120009000056,2024-01-31 00:00:00,IMAGERY/OTHER,2010-06-16 00:00:00,NOT AVAILABLE,ELEMENTARY,439,PK,05,1200090,28,NOT AVAILABLE
-85.56385102499996,30.241585995000037,120009000059,TOMMY SMITH ELEMENTARY SCHOOL,5044 TOMMY SMITH DR,PANAMA CITY,FL,32404,3037,(850) 767-1688,1,1,672,BAY,12005,USA,30.241586,-85.563851,611110,ELEMENTARY AND SECONDARY SCHOOLS,https://nces.ed.gov/ccd/schoolsearch/school_list.asp?schoolid=120009000059,2024-01-31 00:00:00,IMAGERY/OTHER,2010-06-15 00:00:00,NOT AVAILABLE,ELEMENTARY,639,PK,05,1200090,33,10792369
-85.65635457699995,30.228426737000063,120009000063,MOWAT MIDDLE SCHOOL,1903 W HIGHWAY 390,LYNN HAVEN,FL,32444,4200,(850) 767-4040,1,1,912,BAY,12005,USA,30.2284267,-85.6563546,611110,ELEMENTARY AND SECONDARY SCHOOLS,https://nces.ed.gov/ccd/schoolsearch/school_list.asp?schoolid=120009000063,2024-01-31 00:00:00,IMAGERY/OTHER,2011-10-24 00:00:00,NOT AVAILABLE,MIDDLE,868,06,08,1200090,44,NOT AVAILABLE
-85.61578044999999,30.166458067000065,120009000064,RUTHERFORD HIGH SCHOOL,1000 SCHOOL AVE,PANAMA CITY,FL,32401,5157,(850) 767-4500,1,1,1402,BAY,12005,USA,30.1664581,-85.6157805,611110,ELEMENTARY AND SECONDARY SCHOOLS,https://nces.ed.gov/ccd/schoolsearch/school_list.asp?schoolid=120009000064,2024-01-31 00:00:00,IMAGERY/OTHER,2011-10-24 00:00:00,NOT AVAILABLE,HIGH,1337,06,12,1200090,65,10778633
-85.67760624599998,30.18533394700006,120009000065,NORTHSIDE ELEMENTARY SCHOOL,2001 NORTHSIDE DR,PANAMA CITY,FL,32405,3629,(850) 767-1506,1,1,633,BAY,12005,USA,30.1853339,-85.6776062,611110,ELEMENTARY AND SECONDARY SCHOOLS,https://nces.ed.gov/ccd/schoolsearch/school_list.asp?schoolid=120009000065,2024-01-31 00:00:00,IMAGERY/OTHER,2010-06-16 00:00:00,NOT AVAILABLE,ELEMENTARY,598,PK,05,1200090,35,10782823
-85.64388244199995,30.21010367300005,120009000067,A. CRAWFORD MOSLEY HIGH SCHOOL,501 MOSLEY DR,LYNN HAVEN,FL,32444,5609,(850) 767-4400,1,1,1977,BAY,12005,USA,30.2101037,-85.6438824,611110,ELEMENTARY AND SECONDARY SCHOOLS,https://nces.ed.gov/ccd/schoolsearch/school_list.asp?schoolid=120009000067,2024-01-31 00:00:00,IMAGERY/OTHER,2011-10-24 00:00:00,NOT AVAILABLE,HIGH,1901,09,12,1200090,76,10793456
-85.60911164099997,30.083033727000043,120009000068,TYNDALL ACADEMY,7800 TYNDALL PKWY,TYNDALL AFB,FL,32403,1000,(850) 767-1714,1,1,837,BAY,12005,USA,30.0830337,-85.6091116,611110,ELEMENTARY AND SECONDARY SCHOOLS,https://nces.ed.gov/ccd/schoolsearch/school_list.asp?schoolid=120009000068,2024-01-31 00:00:00,IMAGERY/OTHER,2019-01-13 00:00:00,NOT AVAILABLE,ELEMENTARY,800,PK,08,1200090,37,NOT AVAILABLE
-85.67595508899996,30.17255179800003,120009002034,EXCEPTIONAL STUDENT EDUCATION,1311 BALBOA AVE,PANAMA CITY,FL,32401,2080,(850) 872-4100,2,1,0,BAY,12005,USA,30.1725518,-85.6759551,611110,ELEMENTARY AND SECONDARY SCHOOLS,https://nces.ed.gov/ccd/schoolsearch/school_list.asp?schoolid=120009002034,2024-01-31 00:00:00,IMAGERY/OTHER,2010-06-15 00:00:00,NOT AVAILABLE,OTHER,0,PK,12,1200090,0,NOT AVAILABLE
-85.62571710299994,30.149683804000063,120009002037,MARGARET K. LEWIS IN MILLVILLE,203 N EAST AVE,PANAMA CITY,FL,32401,6109,(850) 767-1792,2,1,205,BAY,12005,USA,30.1496838,-85.6257171,611110,ELEMENTARY AND SECONDARY SCHOOLS,https://nces.ed.gov/ccd/schoolsearch/school_list.asp?schoolid=120009002037,2024-01-31 00:00:00,IMAGERY/OTHER,2010-06-16 00:00:00,NOT AVAILABLE,OTHER,182,PK,12,1200090,23,NOT AVAILABLE
-85.56210449399998,30.242412744000035,120009002589,MERRITT BROWN MIDDLE SCHOOL,5044 MERRITT BROWN WAY,PANAMA CITY,FL,32404,3040,(850) 767-3976,1,1,741,BAY,12005,USA,30.2424127,-85.5621045,611110,ELEMENTARY AND SECONDARY SCHOOLS,https://nces.ed.gov/ccd/schoolsearch/school_list.asp?schoolid=120009002589,2024-01-31 00:00:00,IMAGERY/OTHER,2010-06-15 00:00:00,NOT AVAILABLE,MIDDLE,701,06,08,1200090,40,10793460
-85.85226558799997,30.209086240000033,120009002665,SURFSIDE MIDDLE SCHOOL,300 NAUTILUS ST,PANAMA CITY BEACH,FL,32413,2757,(850) 767-5180,1,1,886,BAY,12005,USA,30.2090862,-85.8522656,611110,ELEMENTARY AND SECONDARY SCHOOLS,https://nces.ed.gov/ccd/schoolsearch/school_list.asp?schoolid=120009002665,2024-01-31 00:00:00,IMAGERY/OTHER,2011-10-24 00:00:00,NOT AVAILABLE,MIDDLE,843,06,08,1200090,43,NOT AVAILABLE
-85.76423844499999,30.170464009000057,120009002976,PATRONIS ELEMENTARY SCHOOL,7400 PATRONIS DR,PANAMA CITY BEACH,FL,32408,5740,(850) 767-5075,1,1,690,BAY,12005,USA,30.170464,-85.7642384,611110,ELEMENTARY AND SECONDARY SCHOOLS,https://nces.ed.gov/ccd/schoolsearch/school_list.asp?schoolid=120009002976,2024-01-31 00:00:00,IMAGERY/OTHER,2010-06-16 00:00:00,NOT AVAILABLE,ELEMENTARY,648,KG,05,1200090,42,NOT AVAILABLE
-85.64484854099999,30.207113750000076,120009003147,NEW HORIZONS LEARNING CENTER,3200 MINNESOTA AVE,PANAMA CITY,FL,32405,5027,(850) 767-1110,2,1,125,BAY,12005,USA,30.2071138,-85.6448485,611110,ELEMENTARY AND SECONDARY SCHOOLS,https://nces.ed.gov/ccd/schoolsearch/school_list.asp?schoolid=120009003147,2024-01-31 00:00:00,IMAGERY/OTHER,2010-06-16 00:00:00,NOT AVAILABLE,HIGH,107,06,12,1200090,18,10824117
-85.65463781099999,30.16732279400003,120009003289,BAY REGIONAL JUVENILE DETENTION CENTER,450 E 11TH ST,PANAMA CITY,FL,32401,3487,(850) 872-4706,4,1,24,BAY,12005,USA,30.1673228,-85.6546378,611110,ELEMENTARY AND SECONDARY SCHOOLS,https://nces.ed.gov/ccd/schoolsearch/school_list.asp?schoolid=120009003289,2024-01-31 00:00:00,IMAGERY/OTHER,2010-06-15 00:00:00,NOT AVAILABLE,OTHER,23,KG,12,1200090,1,NOT AVAILABLE
-85.62741028399995,30.213143265000042,120009003676,BAY HAVEN CHARTER ACADEMY,2501 HAWKS LANDING BLVD,PANAMA CITY,FL,32405,6658,(850) 248-3500,1,1,812,BAY,12005,USA,30.2131433,-85.6274103,611110,ELEMENTARY AND SECONDARY SCHOOLS,https://nces.ed.gov/ccd/schoolsearch/school_list.asp?schoolid=120009003676,2024-01-31 00:00:00,IMAGERY/OTHER,2010-06-15 00:00:00,NOT AVAILABLE,ELEMENTARY,765,KG,05,1200090,47,NOT AVAILABLE
-85.68585824299998,30.39498323300006,120009004304,DEANE BOZEMAN SCHOOL,13410 HIGHWAY 77,PANAMA CITY,FL,32409,4213,(850) 767-1300,1,1,1703,BAY,12005,USA,30.3949832,-85.6858582,611110,ELEMENTARY AND SECONDARY SCHOOLS,https://nces.ed.gov/ccd/schoolsearch/school_list.asp?schoolid=120009004304,2024-01-31 00:00:00,IMAGERY/OTHER,2011-10-24 00:00:00,NOT AVAILABLE,OTHER,1619,PK,12,1200090,84,10790168
-85.81295621999999,30.204631649000078,120009004305,J.R. ARNOLD HIGH SCHOOL,550 N ALF COLEMAN RD,PANAMA CITY BEACH,FL,32407,2510,(850) 767-3700,1,1,1683,BAY,12005,USA,30.2046316,-85.8129562,611110,ELEMENTARY AND SECONDARY SCHOOLS,https://nces.ed.gov/ccd/schoolsearch/school_list.asp?schoolid=120009004305,2024-01-31 00:00:00,IMAGERY/OTHER,2011-10-24 00:00:00,NOT AVAILABLE,HIGH,1617,09,12,1200090,66,NOT AVAILABLE
-85.62714885499997,30.213504925000052,120009005429,BAY HAVEN CHARTER MIDDLE SCHOOL,2501 HAWKS LANDING BLVD,PANAMA CITY,FL,32405,6658,(850) 248-3500,1,1,455,BAY,12005,USA,30.2135049,-85.6271489,611110,ELEMENTARY AND SECONDARY SCHOOLS,https://nces.ed.gov/ccd/schoolsearch/school_list.asp?schoolid=120009005429,2024-01-31 00:00:00,IMAGERY/OTHER,2010-06-16 00:00:00,NOT AVAILABLE,MIDDLE,433,06,08,1200090,22,NOT AVAILABLE
-85.65848080999996,30.16861334200007,120009005431,CHAUTAUQUA CHARTER SCHOOL,1118 MAGNOLIA AVE,PANAMA CITY,FL,32401,2815,(850) 785-5056,2,1,51,BAY,12005,USA,30.1686133,-85.6584808,611110,ELEMENTARY AND SECONDARY SCHOOLS,https://nces.ed.gov/ccd/schoolsearch/school_list.asp?schoolid=120009005431,2024-01-31 00:00:00,IMAGERY/OTHER,2010-06-15 00:00:00,NOT AVAILABLE,HIGH,46,09,12,1200090,5,NOT AVAILABLE
-85.67408725499996,30.168789875000073,120009007472,PALM BAY PREPARATORY ACADEMY 6-12,1104 BALBOA AVE,PANAMA CITY,FL,32401,2017,(850) 215-0770,1,1,203,BAY,12005,USA,30.1687899,-85.6740873,611110,ELEMENTARY AND SECONDARY SCHOOLS,https://nces.ed.gov/ccd/schoolsearch/school_list.asp?schoolid=120009007472,2024-01-31 00:00:00,IMAGERY/OTHER,2019-05-09 00:00:00,http://palmbayprep.org/,HIGH,195,06,12,1200090,8,NOT AVAILABLE
-85.80955581899997,30.196878166000033,120009007518,BREAKFAST POINT ACADEMY,601 N RICHARD JACKSON BLVD,PANAMA CITY BEACH,FL,32407,3693,(850) 767-1190,1,1,1128,BAY,12005,USA,30.1968782,-85.8095558,611110,ELEMENTARY AND SECONDARY SCHOOLS,https://nces.ed.gov/ccd/schoolsearch/school_list.asp?schoolid=120009007518,2024-01-31 00:00:00,IMAGERY,2017-10-30 00:00:00,http://breakfastpoint.bay.k12.fl.us/,ELEMENTARY,1058,PK,08,1200090,70,NOT AVAILABLE
-85.59219649199997,30.257500110000024,120009007649,DEER POINT ELEMENTARY SCHOOL,4800 HIGHWAY 2321,PANAMA CITY,FL,32404,9757,(850) 767-5462,1,1,743,BAY,12005,USA,30.2575001,-85.5921965,611110,ELEMENTARY AND SECONDARY SCHOOLS,https://nces.ed.gov/ccd/schoolsearch/school_list.asp?schoolid=120009007649,2024-01-31 00:00:00,IMAGERY,2012-11-12 00:00:00,NOT AVAILABLE,ELEMENTARY,705,PK,05,1200090,38,NOT AVAILABLE
-85.64123102399998,30.165580170000055,120009007763,ROSENWALD HIGH SCHOOL,924 BAY AVE,PANAMA CITY,FL,32401,4249,(850) 767-4580,4,1,371,BAY,12005,USA,30.1655802,-85.641231,611110,ELEMENTARY AND SECONDARY SCHOOLS,https://nces.ed.gov/ccd/schoolsearch/school_list.asp?schoolid=120009007763,2024-01-31 00:00:00,IMAGERY,2011-09-29 00:00:00,NOT AVAILABLE,HIGH,345,06,12,1200090,26,NOT AVAILABLE
-85.67605661399995,30.172525543000063,120009007771,BAY VIRTUAL INSTRUCTION PROGRAM,1515 JUNE AVE,PANAMA CITY,FL,32405,3728,(850) 747-4460,1,1,7,BAY,12005,USA,30.1725255,-85.6760566,611110,ELEMENTARY AND SECONDARY SCHOOLS,https://nces.ed.gov/ccd/schoolsearch/school_list.asp?schoolid=120009007771,2024-01-31 00:00:00,IMAGERY/OTHER,2011-09-29 00:00:00,NOT AVAILABLE,OTHER,7,KG,12,1200090,0,NOT AVAILABLE
-85.59596036099998,30.235138586000062,120009007791,NORTH BAY HAVEN CHARTER ACADEMY MIDDLE SCHOOL,1 BUCCANEER DR,PANAMA CITY,FL,32404,8940,(850) 248-0801,1,1,547,BAY,12005,USA,30.2351386,-85.5959604,611110,ELEMENTARY AND SECONDARY SCHOOLS,https://nces.ed.gov/ccd/schoolsearch/school_list.asp?schoolid=120009007791,2024-01-31 00:00:00,IMAGERY/OTHER,2019-10-03 00:00:00,http://northbayhaven.org/,MIDDLE,524,06,08,1200090,23,NOT AVAILABLE
-85.67618683399996,30.172496024000054,120009007830,BAY VIRTUAL FRANCHISE,1515 JUNE AVE,PANAMA CITY,FL,32405,3728,(850) 767-4460,1,1,66,BAY,12005,USA,30.172496,-85.6761868,611110,ELEMENTARY AND SECONDARY SCHOOLS,https://nces.ed.gov/ccd/schoolsearch/school_list.asp?schoolid=120009007830,2024-01-31 00:00:00,GEOCODE,2012-11-12 00:00:00,http://www.bayvirtualschool.com,OTHER,66,KG,12,1200090,0,NOT AVAILABLE
-85.67477499999995,30.16945965900004,120009007896,NORTH BAY HAVEN CHARTER ACADEMY ELEMENTARY SCHOOL,1 BUCCANEER DR,PANAMA CITY,FL,32404,8940,(850) 248-0801,1,1,733,BAY,12005,USA,30.1694597,-85.674775,611110,ELEMENTARY AND SECONDARY SCHOOLS,https://nces.ed.gov/ccd/schoolsearch/school_list.asp?schoolid=120009007896,2024-01-31 00:00:00,IMAGERY/OTHER,2012-11-12 00:00:00,http://northbayhaven.org/,ELEMENTARY,695,KG,05,1200090,38,NOT AVAILABLE
-85.59596358799996,30.235097006000046,120009007903,NORTH BAY HAVEN CAREER ACADEMY,1 BUCCANEER DR,PANAMA CITY,FL,32404,8940,(850) 248-0801,1,1,926,BAY,12005,USA,30.235097,-85.5959636,611110,ELEMENTARY AND SECONDARY SCHOOLS,https://nces.ed.gov/ccd/schoolsearch/school_list.asp?schoolid=120009007903,2024-01-31 00:00:00,IMAGERY/OTHER,2019-10-03 00:00:00,http://northbayhaven.org/,HIGH,897,09,12,1200090,29,NOT AVAILABLE
-85.69158734899997,30.176506544000063,120009008094,RISING LEADERS ACADEMY,1527 LINCOLN AVE,PANAMA CITY,FL,32405,3145,(850) 215-0844,1,1,319,BAY,12005,USA,30.1765065,-85.6915873,611110,ELEMENTARY AND SECONDARY SCHOOLS,https://nces.ed.gov/ccd/schoolsearch/school_list.asp?schoolid=120009008094,2024-01-31 00:00:00,IMAGERY/OTHER,2014-05-19 00:00:00,NOT AVAILABLE,OTHER,301,KG,12,1200090,18,NOT AVAILABLE
-85.68301424399993,30.207359735000068,120009008103,UNIVERSITY ACADEMY SABL INC,1980 DISCOVERY LOOP,PANAMA CITY,FL,32405,2771,(850) 215-0097,1,1,727,BAY,12005,USA,30.2073597,-85.6830142,611110,ELEMENTARY AND SECONDARY SCHOOLS,https://nces.ed.gov/ccd/schoolsearch/school_list.asp?schoolid=120009008103,2024-01-31 00:00:00,IMAGERY/OTHER,2020-03-19 00:00:00,NOT AVAILABLE,ELEMENTARY,688,KG,08,1200090,39,NOT AVAILABLE
-85.85874487899997,30.28889862300008,120009008453,WEST BAY ELEMENTARY SCHOOL,14813 SCHOOL DR,PANAMA CITY BEACH,FL,32413,9334,(850) 767-1850,1,1,333,BAY,12005,USA,30.2888986,-85.8587449,611110,ELEMENTARY AND SECONDARY SCHOOLS,https://nces.ed.gov/ccd/schoolsearch/school_list.asp?schoolid=120009008453,2024-01-31 00:00:00,IMAGERY,2018-10-22 00:00:00,NOT AVAILABLE,ELEMENTARY,313,KG,05,1200090,20,NOT AVAILABLE
-85.68071420299998,30.179975200000058,120009008471,CENTRAL HIGH SCHOOL,1250 W. 17TH ST,PANAMA CITY,FL,32405,3715,(850) 215-0770,4,1,95,BAY,12005,USA,30.1799752,-85.6807142,611110,ELEMENTARY AND SECONDARY SCHOOLS,https://nces.ed.gov/ccd/schoolsearch/school_list.asp?schoolid=120009008471,2024-01-31 00:00:00,IMAGERY/OTHER,2020-04-19 00:00:00,NOT AVAILABLE,HIGH,93,09,12,1200090,2,NOT AVAILABLE
-85.67478911299997,30.169621041000028,120009008597,PALM BAY ELEMENTARY SCHOOL,1104 BALBOA AVE,PANAMA CITY,FL,32401,2017,(850) 215-0770,1,1,331,BAY,12005,USA,30.169621,-85.6747891,611110,ELEMENTARY AND SECONDARY SCHOOLS,https://nces.ed.gov/ccd/schoolsearch/school_list.asp?schoolid=120009008597,2024-01-31 00:00:00,IMAGERY/OTHER,2020-02-10 00:00:00,http://www.palmbayelementary.org,ELEMENTARY,316,KG,05,1200090,15,NOT AVAILABLE
-85.67611697399997,30.172491825000066,120009008742,BAY VIRTUAL INSTRUCTION PROGRAM (DISTRICT PROVIDED),1311 BALBOA AVE,PANAMA CITY,FL,32401,2080,(850) 767-4377,1,1,117,BAY,12005,USA,30.1724918,-85.676117,611110,ELEMENTARY AND SECONDARY SCHOOLS,https://nces.ed.gov/ccd/schoolsearch/school_list.asp?schoolid=120009008742,2024-01-31 00:00:00,IMAGERY/OTHER,2022-05-12 00:00:00,http://bayvirtualschool.com,HIGH,117,06,12,1200090,0,NOT AVAILABLE
-85.68073482699998,30.180010421000077,120009008882,CENTRAL ACADEMY,1250 W 17TH ST,PANAMA CITY,FL,32405,3715,(850) 866-4148,4,2,-999,BAY,12005,USA,30.1800104,-85.6807348,611110,ELEMENTARY AND SECONDARY SCHOOLS,https://nces.ed.gov/ccd/schoolsearch/school_list.asp?schoolid=120009008882,2024-01-31 00:00:00,IMAGERY/OTHER,2022-05-12 00:00:00,NOT AVAILABLE,NOT REPORTED,-999,M,M,1200090,-999,NOT AVAILABLE
-85.66102048899995,30.151914388000023,120009008901,AMIKIDS MARITIME ACADEMY,200 E. BEACH DRIVE,PANAMA CITY,FL,32401,NOT AVAILABLE,(850) 919-2213,1,3,22,BAY,12005,USA,30.1519144,-85.6610205,611110,ELEMENTARY AND SECONDARY SCHOOLS,https://nces.ed.gov/ccd/schoolsearch/school_list.asp?schoolid=120009008901,2024-01-31 00:00:00,IMAGERY/OTHER,2022-05-12 00:00:00,http://www.amikidsmaritimeacademy.org,HIGH,22,09,12,1200090,0,NOT AVAILABLE
-85.77145889999997,30.195286900000042,120009008970,A. GARY WALSINGHAM ACADEMY,44 CHIP SEAL PARKWAY,PANAMA CITY BEACH,FL,32407,NOT AVAILABLE,(850) 767-5475,1,1,364,BAY,12005,USA,30.1952869,-85.7714589,611110,ELEMENTARY AND SECONDARY SCHOOLS,https://nces.ed.gov/ccd/schoolsearch/school_list.asp?schoolid=120009008970,2024-01-31 00:00:00,IMAGERY/OTHER,2024-02-28 00:00:00,NOT AVAILABLE,ELEMENTARY,343,PK,03,1200090,21,NOT AVAILABLE
-85.63921159999995,30.16568920000003,120009010622,OSCAR PATTERSON ACADEMY,1025 REDWOOD AVE,PANAMA CITY,FL,32401,NOT AVAILABLE,(850) 767-1610,1,3,260,BAY,12005,USA,30.1656892,-85.6392116,611110,ELEMENTARY AND SECONDARY SCHOOLS,https://nces.ed.gov/ccd/schoolsearch/school_list.asp?schoolid=120009010622,2024-01-31 00:00:00,IMAGERY/OTHER,2024-02-28 00:00:00,http://patterson.bay.k12.fl.us/,ELEMENTARY,250,PK,02,1200090,10,NOT AVAILABLE
-82.11009300299997,29.949739738000062,120012000070,BRADFORD HIGH SCHOOL,581 N TEMPLE AVE,STARKE,FL,32091,2609,(904) 966-6075,1,1,818,BRADFORD,12007,USA,29.9497397,-82.110093,611110,ELEMENTARY AND SECONDARY SCHOOLS,https://nces.ed.gov/ccd/schoolsearch/school_list.asp?schoolid=120012000070,2024-01-31 00:00:00,IMAGERY,2012-11-12 00:00:00,http://bradfordschools.org/bhs,HIGH,790,09,12,1200120,28,NOT AVAILABLE
-82.12251046399996,29.951937262000058,120012000071,STARKE ELEMENTARY SCHOOL,1000 W WELDON ST,STARKE,FL,32091,1444,(904) 966-6045,1,1,605,BRADFORD,12007,USA,29.9519373,-82.1225105,611110,ELEMENTARY AND SECONDARY SCHOOLS,https://nces.ed.gov/ccd/schoolsearch/school_list.asp?schoolid=120012000071,2024-01-31 00:00:00,IMAGERY,2010-07-07 00:00:00,http://bradfordschools.org/starke,ELEMENTARY,573,PK,05,1200120,32,10793674
-82.10327304799995,29.935785302000056,120012000072,SOUTHSIDE ELEMENTARY SCHOOL,823 STANSBURY ST,STARKE,FL,32091,4220,(904) 966-6061,1,1,661,BRADFORD,12007,USA,29.9357853,-82.103273,611110,ELEMENTARY AND SECONDARY SCHOOLS,https://nces.ed.gov/ccd/schoolsearch/school_list.asp?schoolid=120012000072,2024-01-31 00:00:00,IMAGERY,2010-07-07 00:00:00,http://bradfordschools.org/southside,ELEMENTARY,627,PK,05,1200120,34,10793673
-82.07205684599995,30.04616173000005,120012000073,LAWTEY ELEMENTARY SCHOOL,22703 N PARK ST,LAWTEY,FL,32058,6807,(904) 966-6795,1,1,293,BRADFORD,12007,USA,30.0461617,-82.0720568,611110,ELEMENTARY AND SECONDARY SCHOOLS,https://nces.ed.gov/ccd/schoolsearch/school_list.asp?schoolid=120012000073,2024-01-31 00:00:00,IMAGERY,2010-07-07 00:00:00,http://bradfordschools.org/lawtey,ELEMENTARY,279,PK,05,1200120,14,10795534
-82.11733575899996,29.952234272000055,120012000075,NORTH FLORIDA TECHNICAL COLLEGE,609 N ORANGE ST,STARKE,FL,32091,2434,(904) 966-6764,3,1,15,BRADFORD,12007,USA,29.9522343,-82.1173358,611110,ELEMENTARY AND SECONDARY SCHOOLS,https://nces.ed.gov/ccd/schoolsearch/school_list.asp?schoolid=120012000075,2024-01-31 00:00:00,IMAGERY,2010-07-07 00:00:00,http://bradfordschools.org/nftc   and   nftc.edu,HIGH,0,06,12,1200120,15,NOT AVAILABLE
-82.11650330099997,29.951178539000068,120012000076,BRADFORD MIDDLE SCHOOL,527 N ORANGE ST,STARKE,FL,32091,2466,(904) 966-6705,1,1,687,BRADFORD,12007,USA,29.9511785,-82.1165033,611110,ELEMENTARY AND SECONDARY SCHOOLS,https://nces.ed.gov/ccd/schoolsearch/school_list.asp?schoolid=120012000076,2024-01-31 00:00:00,IMAGERY,2010-07-07 00:00:00,http://bradfordschools.org/bms,MIDDLE,660,06,08,1200120,27,NOT AVAILABLE
-82.11319995899999,29.951587752000023,120012003677,RAINBOW CENTER,501 W WASHINGTON ST,STARKE,FL,32091,2525,(904) 966-6896,1,1,64,BRADFORD,12007,USA,29.9515878,-82.1132,611110,ELEMENTARY AND SECONDARY SCHOOLS,https://nces.ed.gov/ccd/schoolsearch/school_list.asp?schoolid=120012003677,2024-01-31 00:00:00,IMAGERY/OTHER,2014-05-19 00:00:00,http://bradfordschools.org/rainbow,PREKINDERGARTEN,64,PK,PK,1200120,0,NOT AVAILABLE
-82.11250003899994,29.951256756000078,120012007697,BRADFORD VIRTUAL INSTRUCTION PROGRAM,501 W WASHINGTON ST,STARKE,FL,32091,2525,(904) 966-6021,1,1,0,BRADFORD,12007,USA,29.9512568,-82.1125,611110,ELEMENTARY AND SECONDARY SCHOOLS,https://nces.ed.gov/ccd/schoolsearch/school_list.asp?schoolid=120012007697,2024-01-31 00:00:00,GEOCODE,2014-05-19 00:00:00,http://bradfordschools.org,OTHER,0,KG,12,1200120,0,NOT AVAILABLE
-82.11278635599996,29.951364455000032,120012007861,BRADFORD VIRTUAL FRANCHISE WITH FLVS,501 W WASHINGTON ST,STARKE,FL,32091,2525,(904) 966-6010,1,1,4,BRADFORD,12007,USA,29.9513645,-82.1127864,611110,ELEMENTARY AND SECONDARY SCHOOLS,https://nces.ed.gov/ccd/schoolsearch/school_list.asp?schoolid=120012007861,2024-01-31 00:00:00,GEOCODE,2014-05-19 00:00:00,http://bradfordschools.org,OTHER,4,KG,12,1200120,0,NOT AVAILABLE
-82.11242749599995,29.951499726000065,120012008001,BRADFORD VIRTUAL INSTRUCTION PROGRAM (DISTRICT PROVIDED),501 W WASHINGTON ST,STARKE,FL,32091,2525,(904) 966-6021,1,1,1,BRADFORD,12007,USA,29.9514997,-82.1124275,611110,ELEMENTARY AND SECONDARY SCHOOLS,https://nces.ed.gov/ccd/schoolsearch/school_list.asp?schoolid=120012008001,2024-01-31 00:00:00,GEOCODE,2014-05-19 00:00:00,http://bradfordschools.org,OTHER,1,KG,12,1200120,0,NOT AVAILABLE
-82.11145419999997,29.926615516000027,120012010623,BRADFORD ELEMENTARY,3856 SE 144TH STREET,STARKE,FL,32091,NOT AVAILABLE,(904) 966-6860,1,7,-999,BRADFORD,12007,USA,29.9266155,-82.1114542,611110,ELEMENTARY AND SECONDARY SCHOOLS,https://nces.ed.gov/ccd/schoolsearch/school_list.asp?schoolid=120012010623,2024-01-31 00:00:00,IMAGERY,2024-03-05 00:00:00,http://bradfordschools.org,NOT REPORTED,-999,M,M,1200120,-999,NOT AVAILABLE
-80.78428241799998,28.449321053000062,120015000062,BREVARD COUNTY JUVENILE DETENTION CENTER,5225 DEWITT AVE,COCOA,FL,32927,4302,(321) 690-3400,4,1,19,BREVARD,12009,USA,28.4493211,-80.7842824,611110,ELEMENTARY AND SECONDARY SCHOOLS,https://nces.ed.gov/ccd/schoolsearch/school_list.asp?schoolid=120015000062,2024-01-31 00:00:00,IMAGERY,2010-05-13 00:00:00,NOT AVAILABLE,HIGH,16,06,12,1200150,3,NOT AVAILABLE
-80.80635840099995,28.593615830000033,120015000078,TITUSVILLE HIGH SCHOOL,150 TERRIER TRL S,TITUSVILLE,FL,32780,4733,(321) 264-3100,1,1,1375,BREVARD,12009,USA,28.5936158,-80.8063584,611110,ELEMENTARY AND SECONDARY SCHOOLS,https://nces.ed.gov/ccd/schoolsearch/school_list.asp?schoolid=120015000078,2024-01-31 00:00:00,IMAGERY,2016-03-09 00:00:00,http://www.titusville.brevard.k12.fl.us,HIGH,1314,09,12,1200150,61,NOT AVAILABLE
-80.85121235399998,28.636370577000037,120015000079,OAK PARK ELEMENTARY SCHOOL,3395 DAIRY RD,TITUSVILLE,FL,32796,1511,(321) 269-3252,1,1,539,BREVARD,12009,USA,28.6363706,-80.8512124,611110,ELEMENTARY AND SECONDARY SCHOOLS,https://nces.ed.gov/ccd/schoolsearch/school_list.asp?schoolid=120015000079,2024-01-31 00:00:00,IMAGERY,2010-05-13 00:00:00,http://www.oakpark.brevard.k12.fl.us,ELEMENTARY,501,PK,06,1200150,38,10782181
-80.84935241499994,28.636363006000067,120015000080,JAMES MADISON MIDDLE SCHOOL,3375 DAIRY RD,TITUSVILLE,FL,32796,1511,(321) 264-3120,1,1,469,BREVARD,12009,USA,28.636363,-80.8493524,611110,ELEMENTARY AND SECONDARY SCHOOLS,https://nces.ed.gov/ccd/schoolsearch/school_list.asp?schoolid=120015000080,2024-01-31 00:00:00,IMAGERY,2010-05-13 00:00:00,http://www.madison.brevard.k12.fl.us,MIDDLE,446,07,08,1200150,23,NOT AVAILABLE
-80.84359942199995,28.580492630000037,120015000081,APOLLO ELEMENTARY SCHOOL,3085 KNOX MCRAE DR,TITUSVILLE,FL,32780,4528,(321) 267-7890,1,1,779,BREVARD,12009,USA,28.5804926,-80.8435994,611110,ELEMENTARY AND SECONDARY SCHOOLS,https://nces.ed.gov/ccd/schoolsearch/school_list.asp?schoolid=120015000081,2024-01-31 00:00:00,IMAGERY,2016-03-09 00:00:00,http://www.apollo.brevard.k12.fl.us/,ELEMENTARY,730,PK,06,1200150,49,10782164
-80.81118191399997,28.56570711200004,120015000083,COQUINA ELEMENTARY SCHOOL,850 KNOX MCRAE DR,TITUSVILLE,FL,32780,6407,(321) 264-3060,1,1,585,BREVARD,12009,USA,28.5657071,-80.8111819,611110,ELEMENTARY AND SECONDARY SCHOOLS,https://nces.ed.gov/ccd/schoolsearch/school_list.asp?schoolid=120015000083,2024-01-31 00:00:00,IMAGERY,2016-03-09 00:00:00,http://www.coquina.brevard.k12.fl.us,ELEMENTARY,557,PK,06,1200150,28,NOT AVAILABLE
-80.84747291799994,28.66793695100006,120015000084,MIMS ELEMENTARY SCHOOL,2582 US HIGHWAY 1,MIMS,FL,32754,3856,(321) 264-3020,1,1,499,BREVARD,12009,USA,28.667937,-80.8474729,611110,ELEMENTARY AND SECONDARY SCHOOLS,https://nces.ed.gov/ccd/schoolsearch/school_list.asp?schoolid=120015000084,2024-01-31 00:00:00,IMAGERY,2016-03-09 00:00:00,http://www.mims.brevard.k12.fl.us,ELEMENTARY,462,PK,06,1200150,37,10790320
-80.81908601399994,28.569278761000078,120015000086,ANDREW JACKSON MIDDLE SCHOOL,1515 KNOX MCRAE DR,TITUSVILLE,FL,32780,5414,(321) 269-1812,1,1,580,BREVARD,12009,USA,28.5692788,-80.819086,611110,ELEMENTARY AND SECONDARY SCHOOLS,https://nces.ed.gov/ccd/schoolsearch/school_list.asp?schoolid=120015000086,2024-01-31 00:00:00,IMAGERY/OTHER,2019-01-27 00:00:00,http://www.jackson.brevard.k12.fl.us/,MIDDLE,551,07,08,1200150,29,NOT AVAILABLE
-80.81240540799996,28.54207770900007,120015000087,IMPERIAL ESTATES ELEMENTARY SCHOOL,900 IMPERIAL ESTATES LN,TITUSVILLE,FL,32780,7195,(321) 267-1773,1,1,696,BREVARD,12009,USA,28.5420777,-80.8124054,611110,ELEMENTARY AND SECONDARY SCHOOLS,https://nces.ed.gov/ccd/schoolsearch/school_list.asp?schoolid=120015000087,2024-01-31 00:00:00,IMAGERY,2016-03-09 00:00:00,http://www.imperial.brevard.k12.fl.us,ELEMENTARY,658,PK,06,1200150,38,10787161
-80.85123030299997,28.625075680000066,120015000088,ASTRONAUT HIGH SCHOOL,800 WAR EAGLE BLVD,TITUSVILLE,FL,32796,2316,(321) 264-3000,1,1,1164,BREVARD,12009,USA,28.6250757,-80.8512303,611110,ELEMENTARY AND SECONDARY SCHOOLS,https://nces.ed.gov/ccd/schoolsearch/school_list.asp?schoolid=120015000088,2024-01-31 00:00:00,IMAGERY,2016-03-09 00:00:00,http://www.astronaut.brevard.k12.fl.us/,HIGH,1112,09,12,1200150,52,10790638
-80.85789027399994,28.702170850000073,120015000089,PINEWOOD ELEMENTARY SCHOOL,3757 OLD DIXIE HWY,MIMS,FL,32754,5546,(321) 269-4530,1,1,555,BREVARD,12009,USA,28.7021709,-80.8578903,611110,ELEMENTARY AND SECONDARY SCHOOLS,https://nces.ed.gov/ccd/schoolsearch/school_list.asp?schoolid=120015000089,2024-01-31 00:00:00,IMAGERY,2016-03-09 00:00:00,http://www.pinewood.brevard.k12.fl.us,ELEMENTARY,521,PK,06,1200150,34,10787176
-80.72290767499999,28.339802586000076,120015000090,ROCKLEDGE SENIOR HIGH SCHOOL,220 RAIDER RD,ROCKLEDGE,FL,32955,2422,(321) 636-3711,1,1,1631,BREVARD,12009,USA,28.3398026,-80.7229077,611110,ELEMENTARY AND SECONDARY SCHOOLS,https://nces.ed.gov/ccd/schoolsearch/school_list.asp?schoolid=120015000090,2024-01-31 00:00:00,IMAGERY,2016-03-08 00:00:00,http://www.rockledge.brevard.k12.fl.us,HIGH,1558,09,12,1200150,73,10786619
-80.67953782199999,28.214307431000066,120015000091,SUNTREE ELEMENTARY SCHOOL,900 JORDAN BLASS DR,MELBOURNE,FL,32940,1829,(321) 242-6480,1,1,639,BREVARD,12009,USA,28.2143074,-80.6795378,611110,ELEMENTARY AND SECONDARY SCHOOLS,https://nces.ed.gov/ccd/schoolsearch/school_list.asp?schoolid=120015000091,2024-01-31 00:00:00,IMAGERY,2016-03-09 00:00:00,http://www.suntree.brevard.k12.fl.ud,ELEMENTARY,600,PK,06,1200150,39,10776996
-80.75004160399999,28.382907793000072,120015000093,CAMBRIDGE ELEMENTARY MAGNET SCHOOL,2000 CAMBRIDGE DR,COCOA,FL,32922,6513,(321) 633-3550,1,1,522,BREVARD,12009,USA,28.3829078,-80.7500416,611110,ELEMENTARY AND SECONDARY SCHOOLS,https://nces.ed.gov/ccd/schoolsearch/school_list.asp?schoolid=120015000093,2024-01-31 00:00:00,IMAGERY,2010-05-13 00:00:00,http://www.cambridge.brevard.k12.fl.us,ELEMENTARY,495,PK,06,1200150,27,NOT AVAILABLE
-80.74795311599996,28.368379584000024,120015000094,ENDEAVOUR ELEMENTARY SCHOOL,905 PINEDA ST,COCOA,FL,32922,6370,(321) 633-3545,1,1,764,BREVARD,12009,USA,28.3683796,-80.7479531,611110,ELEMENTARY AND SECONDARY SCHOOLS,https://nces.ed.gov/ccd/schoolsearch/school_list.asp?schoolid=120015000094,2024-01-31 00:00:00,IMAGERY/OTHER,2016-03-08 00:00:00,http://www.endeavour.brevard.k12.fl.us,ELEMENTARY,717,PK,06,1200150,47,NOT AVAILABLE
-80.74106709999995,28.33741462200004,120015000095,GOLFVIEW ELEMENTARY MAGNET SCHOOL,1530 S FISKE BLVD,ROCKLEDGE,FL,32955,2515,(321) 633-3570,1,1,473,BREVARD,12009,USA,28.3374146,-80.7410671,611110,ELEMENTARY AND SECONDARY SCHOOLS,https://nces.ed.gov/ccd/schoolsearch/school_list.asp?schoolid=120015000095,2024-01-31 00:00:00,IMAGERY,2010-05-13 00:00:00,http://www.golfview.brevard.k12.fl.us,ELEMENTARY,441,PK,06,1200150,32,NOT AVAILABLE
-80.73724972699995,28.348226942000053,120015000096,RONALD MCNAIR MAGNET MIDDLE SCHOOL,1 CHALLENGER DR,ROCKLEDGE,FL,32955,2107,(321) 633-3630,1,1,384,BREVARD,12009,USA,28.3482269,-80.7372497,611110,ELEMENTARY AND SECONDARY SCHOOLS,https://nces.ed.gov/ccd/schoolsearch/school_list.asp?schoolid=120015000096,2024-01-31 00:00:00,IMAGERY/OTHER,2016-03-08 00:00:00,http://www.mcnair.ms.brevard.k12.fl.us,MIDDLE,364,07,08,1200150,20,NOT AVAILABLE
-80.76014008799996,28.438302875000034,120015000097,FAIRGLEN ELEMENTARY SCHOOL,201 INDIAN TRL,COCOA,FL,32927,5909,(321) 631-1993,1,1,660,BREVARD,12009,USA,28.4383029,-80.7601401,611110,ELEMENTARY AND SECONDARY SCHOOLS,https://nces.ed.gov/ccd/schoolsearch/school_list.asp?schoolid=120015000097,2024-01-31 00:00:00,IMAGERY/OTHER,2016-03-09 00:00:00,http://www.fairglen.brevard.k12.fl.us,ELEMENTARY,617,PK,06,1200150,43,NOT AVAILABLE
-80.74178626399998,28.325281795000024,120015000098,JOHN F. KENNEDY MIDDLE SCHOOL,2100 S FISKE BLVD,ROCKLEDGE,FL,32955,3318,(321) 633-3500,1,1,712,BREVARD,12009,USA,28.3252818,-80.7417863,611110,ELEMENTARY AND SECONDARY SCHOOLS,https://nces.ed.gov/ccd/schoolsearch/school_list.asp?schoolid=120015000098,2024-01-31 00:00:00,IMAGERY,2016-03-09 00:00:00,http://www.kennedy.brevard.k12.fl.us,MIDDLE,673,07,08,1200150,39,NOT AVAILABLE
-80.76904967299998,28.38315674100005,120015000100,COCOA HIGH SCHOOL,2000 TIGER TRL,COCOA,FL,32926,5526,(321) 632-5300,1,1,1635,BREVARD,12009,USA,28.3831567,-80.7690497,611110,ELEMENTARY AND SECONDARY SCHOOLS,https://nces.ed.gov/ccd/schoolsearch/school_list.asp?schoolid=120015000100,2024-01-31 00:00:00,IMAGERY,2016-03-08 00:00:00,http://www.cocoa.brevard.k12.fl.us,HIGH,1551,07,12,1200150,84,NOT AVAILABLE
-80.77062400199998,28.37045553100006,120015000101,SATURN ELEMENTARY SCHOOL,880 N RANGE RD,COCOA,FL,32926,5326,(321) 633-3535,1,1,676,BREVARD,12009,USA,28.3704555,-80.770624,611110,ELEMENTARY AND SECONDARY SCHOOLS,https://nces.ed.gov/ccd/schoolsearch/school_list.asp?schoolid=120015000101,2024-01-31 00:00:00,IMAGERY/OTHER,2016-03-08 00:00:00,http://www.saturn.brevard.k12.fl.us,ELEMENTARY,643,PK,06,1200150,33,NOT AVAILABLE
-80.74415900999998,28.309236827000063,120015000102,HANS CHRISTIAN ANDERSEN ELEMENTARY SCHOOL,3011 S FISKE BLVD,ROCKLEDGE,FL,32955,4301,(321) 633-3610,1,1,607,BREVARD,12009,USA,28.3092368,-80.744159,611110,ELEMENTARY AND SECONDARY SCHOOLS,https://nces.ed.gov/ccd/schoolsearch/school_list.asp?schoolid=120015000102,2024-01-31 00:00:00,IMAGERY,2016-03-08 00:00:00,http://www.andersen.brevard.k12.fl.us,ELEMENTARY,567,PK,06,1200150,40,10781540
-80.61952968299994,28.090181142000063,120015000103,MELBOURNE SENIOR HIGH SCHOOL,74 BULLDOG BLVD,MELBOURNE,FL,32901,3151,(321) 952-5880,1,1,2346,BREVARD,12009,USA,28.0901811,-80.6195297,611110,ELEMENTARY AND SECONDARY SCHOOLS,https://nces.ed.gov/ccd/schoolsearch/school_list.asp?schoolid=120015000103,2024-01-31 00:00:00,IMAGERY/OTHER,2016-03-09 00:00:00,http://www.melbourne.hs.brevard.k12.fl.us,HIGH,2249,09,12,1200150,97,10786624
-80.61846504999994,28.048490069000025,120015000104,PALM BAY MAGNET SENIOR HIGH SCHOOL,101 PIRATE LN,MELBOURNE,FL,32901,8629,(321) 952-5900,1,1,1557,BREVARD,12009,USA,28.0484901,-80.618465,611110,ELEMENTARY AND SECONDARY SCHOOLS,https://nces.ed.gov/ccd/schoolsearch/school_list.asp?schoolid=120015000104,2024-01-31 00:00:00,IMAGERY,2016-03-09 00:00:00,http://www.palmbay.hs.brevard.k12.fl.us,HIGH,1486,08,12,1200150,71,NOT AVAILABLE
-80.66880854399994,28.061995500000023,120015000105,MEADOWLANE PRIMARY ELEMENTARY SCHOOL,2800 WINGATE BLVD,WEST MELBOURNE,FL,32904,6630,(321) 723-6354,1,1,701,BREVARD,12009,USA,28.0619955,-80.6688085,611110,ELEMENTARY AND SECONDARY SCHOOLS,https://nces.ed.gov/ccd/schoolsearch/school_list.asp?schoolid=120015000105,2024-01-31 00:00:00,IMAGERY/OTHER,2016-03-08 00:00:00,http://www.meadowlane.brevard.k12.fl.us,ELEMENTARY,650,PK,02,1200150,51,10775750
-80.62960776999995,28.063729760000058,120015000106,UNIVERSITY PARK ELEMENTARY SCHOOL,500 W UNIVERSITY BLVD,MELBOURNE,FL,32901,6916,(321) 723-2566,1,1,518,BREVARD,12009,USA,28.0637298,-80.6296078,611110,ELEMENTARY AND SECONDARY SCHOOLS,https://nces.ed.gov/ccd/schoolsearch/school_list.asp?schoolid=120015000106,2024-01-31 00:00:00,IMAGERY,2010-05-13 00:00:00,http://www.upark.brevard.k12.fl.us,ELEMENTARY,484,PK,06,1200150,34,NOT AVAILABLE
-80.60320862499998,28.062729043000047,120015000107,STONE MAGNET MIDDLE SCHOOL,1101 E UNIVERSITY BLVD,MELBOURNE,FL,32901,7237,(321) 723-0741,1,1,706,BREVARD,12009,USA,28.062729,-80.6032086,611110,ELEMENTARY AND SECONDARY SCHOOLS,https://nces.ed.gov/ccd/schoolsearch/school_list.asp?schoolid=120015000107,2024-01-31 00:00:00,IMAGERY,2016-03-09 00:00:00,http://www.stone.brevard.k12.fl.us,MIDDLE,670,07,08,1200150,36,NOT AVAILABLE
-80.59099037799996,28.02883726400006,120015000108,PALM BAY ELEMENTARY SCHOOL,1200 ALAMANDA RD NE,PALM BAY,FL,32905,4221,(321) 723-1055,1,1,626,BREVARD,12009,USA,28.0288373,-80.5909904,611110,ELEMENTARY AND SECONDARY SCHOOLS,https://nces.ed.gov/ccd/schoolsearch/school_list.asp?schoolid=120015000108,2024-01-31 00:00:00,IMAGERY/OTHER,2016-03-09 00:00:00,http://www.palmbay.es.brevard.k12.fl.us,ELEMENTARY,586,PK,06,1200150,40,NOT AVAILABLE
-80.64755559999998,28.130488541000034,120015000109,EAU GALLIE HIGH SCHOOL,1400 COMMODORE BLVD,MELBOURNE,FL,32935,4122,(321) 242-6400,1,1,1665,BREVARD,12009,USA,28.1304885,-80.6475556,611110,ELEMENTARY AND SECONDARY SCHOOLS,https://nces.ed.gov/ccd/schoolsearch/school_list.asp?schoolid=120015000109,2024-01-31 00:00:00,IMAGERY,2016-03-08 00:00:00,http://www.eghs.brevard.k12.fl.us,HIGH,1586,09,12,1200150,79,10786623
-80.66368873299996,28.062145670000064,120015000110,CENTRAL MIDDLE SCHOOL,2600 WINGATE BLVD,WEST MELBOURNE,FL,32904,7463,(321) 722-4150,1,1,1192,BREVARD,12009,USA,28.0621457,-80.6636887,611110,ELEMENTARY AND SECONDARY SCHOOLS,https://nces.ed.gov/ccd/schoolsearch/school_list.asp?schoolid=120015000110,2024-01-31 00:00:00,IMAGERY/OTHER,2016-03-09 00:00:00,http://www.central.brevard.k12.fl.us,MIDDLE,1127,07,08,1200150,65,10793465
-80.65383328899998,28.142232209000042,120015000111,LYNDON B. JOHNSON MIDDLE SCHOOL,2155 CROTON RD,MELBOURNE,FL,32935,3337,(321) 242-6430,1,1,647,BREVARD,12009,USA,28.1422322,-80.6538333,611110,ELEMENTARY AND SECONDARY SCHOOLS,https://nces.ed.gov/ccd/schoolsearch/school_list.asp?schoolid=120015000111,2024-01-31 00:00:00,IMAGERY/OTHER,2016-03-09 00:00:00,http://www.johnson.brevard.k12.fl.us,MIDDLE,610,07,08,1200150,37,NOT AVAILABLE
-80.66427317199998,28.17089938500004,120015000112,SHERWOOD ELEMENTARY SCHOOL,2541 POST RD,MELBOURNE,FL,32935,2315,(321) 254-6424,1,1,494,BREVARD,12009,USA,28.1708994,-80.6642732,611110,ELEMENTARY AND SECONDARY SCHOOLS,https://nces.ed.gov/ccd/schoolsearch/school_list.asp?schoolid=120015000112,2024-01-31 00:00:00,IMAGERY,2019-02-17 00:00:00,http://www.sherwood.brevard.k12.fl.us,ELEMENTARY,458,PK,06,1200150,36,10790640
-80.64169147299998,28.120566221000047,120015000113,HARBOR CITY ELEMENTARY SCHOOL,1377 SARNO RD,MELBOURNE,FL,32935,5205,(321) 254-5534,1,1,431,BREVARD,12009,USA,28.1205662,-80.6416915,611110,ELEMENTARY AND SECONDARY SCHOOLS,https://nces.ed.gov/ccd/schoolsearch/school_list.asp?schoolid=120015000113,2024-01-31 00:00:00,IMAGERY,2016-03-09 00:00:00,http://www.harborcity.brevard.k12.fl.us,ELEMENTARY,403,PK,06,1200150,28,NOT AVAILABLE
-80.67089362599995,28.130663859000038,120015000114,SABAL ELEMENTARY SCHOOL,1401 N WICKHAM RD,MELBOURNE,FL,32935,8102,(321) 254-7261,1,1,540,BREVARD,12009,USA,28.1306639,-80.6708936,611110,ELEMENTARY AND SECONDARY SCHOOLS,https://nces.ed.gov/ccd/schoolsearch/school_list.asp?schoolid=120015000114,2024-01-31 00:00:00,IMAGERY,2016-03-09 00:00:00,http://www.sabal.brevard.k12.fl.us,ELEMENTARY,503,PK,06,1200150,37,NOT AVAILABLE
-80.65410675199996,28.130033371000025,120015000116,CROTON ELEMENTARY SCHOOL,1449 CROTON RD,MELBOURNE,FL,32935,3267,(321) 259-3818,1,1,525,BREVARD,12009,USA,28.1300334,-80.6541068,611110,ELEMENTARY AND SECONDARY SCHOOLS,https://nces.ed.gov/ccd/schoolsearch/school_list.asp?schoolid=120015000116,2024-01-31 00:00:00,IMAGERY,2016-03-09 00:00:00,http://www.croton.brevard.k12.fl.us,ELEMENTARY,488,PK,06,1200150,37,NOT AVAILABLE
-80.66407412399997,28.11718127000006,120015000117,ROY ALLEN ELEMENTARY SCHOOL,2601 FOUNTAINHEAD BLVD,MELBOURNE,FL,32935,8724,(321) 242-6450,1,1,637,BREVARD,12009,USA,28.1171813,-80.6640741,611110,ELEMENTARY AND SECONDARY SCHOOLS,https://nces.ed.gov/ccd/schoolsearch/school_list.asp?schoolid=120015000117,2024-01-31 00:00:00,IMAGERY,2016-03-09 00:00:00,http://www.allen.brevard.k12.fl.us,ELEMENTARY,598,PK,06,1200150,39,10786628
-80.69963227399995,28.377119121000078,120015000118,MERRITT ISLAND HIGH SCHOOL,100 MUSTANG WAY,MERRITT ISLAND,FL,32953,3150,(321) 454-1000,1,1,1618,BREVARD,12009,USA,28.3771191,-80.6996323,611110,ELEMENTARY AND SECONDARY SCHOOLS,https://nces.ed.gov/ccd/schoolsearch/school_list.asp?schoolid=120015000118,2024-01-31 00:00:00,IMAGERY/OTHER,2016-03-08 00:00:00,http://www.merritt.hs.brevard.k12.fl.us,HIGH,1546,09,12,1200150,72,NOT AVAILABLE
-80.69594386999995,28.36254931900004,120015000119,EDGEWOOD JR/SR HIGH SCHOOL,180 E MERRITT AVE,MERRITT ISLAND,FL,32953,3413,(321) 454-1030,1,1,989,BREVARD,12009,USA,28.3625493,-80.6959439,611110,ELEMENTARY AND SECONDARY SCHOOLS,https://nces.ed.gov/ccd/schoolsearch/school_list.asp?schoolid=120015000119,2024-01-31 00:00:00,IMAGERY,2010-05-13 00:00:00,http://www.edgewood.brevard.k12.fl.us,HIGH,939,07,12,1200150,50,NOT AVAILABLE
-80.70251636699999,28.362374677000048,120015000120,MILA ELEMENTARY SCHOOL,288 W MERRITT AVE,MERRITT ISLAND,FL,32953,4759,(321) 454-1070,1,1,465,BREVARD,12009,USA,28.3623747,-80.7025164,611110,ELEMENTARY AND SECONDARY SCHOOLS,https://nces.ed.gov/ccd/schoolsearch/school_list.asp?schoolid=120015000120,2024-01-31 00:00:00,IMAGERY,2016-03-08 00:00:00,http://www.mila.brevard.k12.fl.us,ELEMENTARY,433,PK,06,1200150,32,NOT AVAILABLE
-80.69527168199994,28.341226810000023,120015000121,TROPICAL ELEMENTARY SCHOOL,885 S COURTENAY PKWY,MERRITT ISLAND,FL,32952,4984,(321) 454-1080,1,1,708,BREVARD,12009,USA,28.3412268,-80.6952717,611110,ELEMENTARY AND SECONDARY SCHOOLS,https://nces.ed.gov/ccd/schoolsearch/school_list.asp?schoolid=120015000121,2024-01-31 00:00:00,IMAGERY,2016-03-09 00:00:00,http://www.tropical.brevard.k12.fl.us,ELEMENTARY,671,PK,06,1200150,37,NOT AVAILABLE
-80.66975640999993,28.377906860000053,120015000122,AUDUBON ELEMENTARY SCHOOL,1201 N BANANA RIVER DR,MERRITT ISLAND,FL,32952,5757,(321) 452-2085,1,1,484,BREVARD,12009,USA,28.3779069,-80.6697564,611110,ELEMENTARY AND SECONDARY SCHOOLS,https://nces.ed.gov/ccd/schoolsearch/school_list.asp?schoolid=120015000122,2024-01-31 00:00:00,IMAGERY/OTHER,2016-03-08 00:00:00,http://www.audubon.brevard.k12.fl.us/,ELEMENTARY,450,PK,06,1200150,34,NOT AVAILABLE
-80.68711270199998,28.33459399800006,120015000125,THOMAS JEFFERSON MIDDLE SCHOOL,1275 S COURTENAY PKWY,MERRITT ISLAND,FL,32952,3805,(321) 453-5154,1,1,640,BREVARD,12009,USA,28.334594,-80.6871127,611110,ELEMENTARY AND SECONDARY SCHOOLS,https://nces.ed.gov/ccd/schoolsearch/school_list.asp?schoolid=120015000125,2024-01-31 00:00:00,IMAGERY,2019-02-20 00:00:00,http://www.jefferson.brevard.k12.fl.us,MIDDLE,608,07,08,1200150,32,NOT AVAILABLE
-80.69933436599996,28.394291673000055,120015000126,LEWIS CARROLL ELEMENTARY SCHOOL,1 SKYLINE BLVD,MERRITT ISLAND,FL,32953,3021,(321) 452-1234,1,1,667,BREVARD,12009,USA,28.3942917,-80.6993344,611110,ELEMENTARY AND SECONDARY SCHOOLS,https://nces.ed.gov/ccd/schoolsearch/school_list.asp?schoolid=120015000126,2024-01-31 00:00:00,IMAGERY/OTHER,2016-03-08 00:00:00,http://www.carroll.brevard.k12.fl.us,ELEMENTARY,626,PK,06,1200150,41,NOT AVAILABLE
-80.63055576699998,28.31773515900005,120015000127,COCOA BEACH JUNIOR/SENIOR HIGH SCHOOL,1500 MINUTEMEN CSWY,COCOA BEACH,FL,32931,2048,(321) 783-1776,1,1,1031,BREVARD,12009,USA,28.3177352,-80.6305558,611110,ELEMENTARY AND SECONDARY SCHOOLS,https://nces.ed.gov/ccd/schoolsearch/school_list.asp?schoolid=120015000127,2024-01-31 00:00:00,IMAGERY/OTHER,2016-03-09 00:00:00,http://www.cbhs.brevard.k12.fl.us/,HIGH,982,07,12,1200150,49,NOT AVAILABLE
-80.62753278699995,28.31744690100004,120015000128,THEODORE ROOSEVELT ELEMENTARY SCHOOL,1400 MINUTEMEN CSWY,COCOA BEACH,FL,32931,2006,(321) 868-6660,1,1,308,BREVARD,12009,USA,28.3174469,-80.6275328,611110,ELEMENTARY AND SECONDARY SCHOOLS,https://nces.ed.gov/ccd/schoolsearch/school_list.asp?schoolid=120015000128,2024-01-31 00:00:00,IMAGERY,2010-05-13 00:00:00,http://www.roosevelt.brevard.k12.fl.us,ELEMENTARY,288,PK,06,1200150,20,NOT AVAILABLE
-80.59898993299998,28.392647767000028,120015000130,CAPE VIEW ELEMENTARY SCHOOL,8440 ROSALIND AVE,CAPE CANAVERAL,FL,32920,2124,(321) 784-0284,1,1,329,BREVARD,12009,USA,28.3926478,-80.5989899,611110,ELEMENTARY AND SECONDARY SCHOOLS,https://nces.ed.gov/ccd/schoolsearch/school_list.asp?schoolid=120015000130,2024-01-31 00:00:00,IMAGERY,2016-03-09 00:00:00,http://www.capeview.brevard.k12.fl.us,ELEMENTARY,305,PK,06,1200150,24,NOT AVAILABLE
-80.59671017199997,28.18557413700006,120015000131,SATELLITE SENIOR HIGH SCHOOL,300 SCORPION CT,SATELLITE BEACH,FL,32937,2949,(321) 779-2000,1,1,1582,BREVARD,12009,USA,28.1855741,-80.5967102,611110,ELEMENTARY AND SECONDARY SCHOOLS,https://nces.ed.gov/ccd/schoolsearch/school_list.asp?schoolid=120015000131,2024-01-31 00:00:00,IMAGERY,2010-05-13 00:00:00,http://www.scorpnet.brevard.k12.fl.us,HIGH,1517,09,12,1200150,65,NOT AVAILABLE
-80.59691033099995,28.183958032000078,120015000132,DELAURA MIDDLE SCHOOL,300 JACKSON AVE,SATELLITE BEACH,FL,32937,2928,(321) 773-7581,1,1,887,BREVARD,12009,USA,28.183958,-80.5969103,611110,ELEMENTARY AND SECONDARY SCHOOLS,https://nces.ed.gov/ccd/schoolsearch/school_list.asp?schoolid=120015000132,2024-01-31 00:00:00,IMAGERY/OTHER,2016-03-09 00:00:00,http://www.delaura.brevard.k12.fl.us,MIDDLE,843,07,08,1200150,44,NOT AVAILABLE
-80.60221932199994,28.186247483000045,120015000133,SPESSARD L. HOLLAND ELEMENTARY SCHOOL,50 HOLLAND CT,SATELLITE BEACH,FL,32937,2945,(321) 773-7591,1,1,463,BREVARD,12009,USA,28.1862475,-80.6022193,611110,ELEMENTARY AND SECONDARY SCHOOLS,https://nces.ed.gov/ccd/schoolsearch/school_list.asp?schoolid=120015000133,2024-01-31 00:00:00,IMAGERY,2016-03-09 00:00:00,http://www.holland.brevard.k12.fl.us,ELEMENTARY,432,PK,06,1200150,31,NOT AVAILABLE
-80.60420678899999,28.202956592000078,120015000134,SEA PARK ELEMENTARY SCHOOL,300 SEA PARK BLVD,SATELLITE BEACH,FL,32937,2118,(321) 779-2050,1,1,356,BREVARD,12009,USA,28.2029566,-80.6042068,611110,ELEMENTARY AND SECONDARY SCHOOLS,https://nces.ed.gov/ccd/schoolsearch/school_list.asp?schoolid=120015000134,2024-01-31 00:00:00,IMAGERY,2010-05-13 00:00:00,http://seapark.es.brevard.k12.fl.us,ELEMENTARY,335,PK,06,1200150,21,NOT AVAILABLE
-80.60239212399995,28.171481478000032,120015000135,SURFSIDE ELEMENTARY SCHOOL,475 CASSIA BLVD,SATELLITE BEACH,FL,32937,3114,(321) 773-2818,1,1,473,BREVARD,12009,USA,28.1714815,-80.6023921,611110,ELEMENTARY AND SECONDARY SCHOOLS,https://nces.ed.gov/ccd/schoolsearch/school_list.asp?schoolid=120015000135,2024-01-31 00:00:00,IMAGERY,2016-03-09 00:00:00,http://www.surfside.brevard.k12.fl.us,ELEMENTARY,443,PK,06,1200150,30,NOT AVAILABLE
-80.59240434999998,28.149741505000065,120015000136,OCEAN BREEZE ELEMENTARY SCHOOL,1101 CHEYENNE DR,INDIAN HARBOUR BEACH,FL,32937,4170,(321) 779-2040,1,1,591,BREVARD,12009,USA,28.1497415,-80.5924044,611110,ELEMENTARY AND SECONDARY SCHOOLS,https://nces.ed.gov/ccd/schoolsearch/school_list.asp?schoolid=120015000136,2024-01-31 00:00:00,IMAGERY,2016-03-09 00:00:00,http://www.ocean.brevard.k12.fl.us,ELEMENTARY,554,PK,06,1200150,37,NOT AVAILABLE
-80.57351900699996,28.10042115400006,120015000137,INDIALANTIC ELEMENTARY SCHOOL,1050 N PALM AVE,INDIALANTIC,FL,32903,3030,(321) 723-2811,1,1,730,BREVARD,12009,USA,28.1004212,-80.573519,611110,ELEMENTARY AND SECONDARY SCHOOLS,https://nces.ed.gov/ccd/schoolsearch/school_list.asp?schoolid=120015000137,2024-01-31 00:00:00,IMAGERY/OTHER,2019-02-06 00:00:00,http://www.indialantic.brevard.k12.fl.us,ELEMENTARY,687,PK,06,1200150,43,NOT AVAILABLE
-80.57475943199995,28.101690361000067,120015000138,HERBERT C. HOOVER MIDDLE SCHOOL,2000 HAWK HAVEN DR,INDIALANTIC,FL,32903,2952,(321) 727-1611,1,1,535,BREVARD,12009,USA,28.1016904,-80.5747594,611110,ELEMENTARY AND SECONDARY SCHOOLS,https://nces.ed.gov/ccd/schoolsearch/school_list.asp?schoolid=120015000138,2024-01-31 00:00:00,IMAGERY/OTHER,2016-03-09 00:00:00,http://www.hoover.brevard.k12.fl.us,MIDDLE,506,07,08,1200150,29,NOT AVAILABLE
-80.55552354799994,28.05408241600003,120015000139,GEMINI ELEMENTARY SCHOOL,2100 OAK ST,MELBOURNE BEACH,FL,32951,2817,(321) 727-3090,1,1,501,BREVARD,12009,USA,28.0540824,-80.5555235,611110,ELEMENTARY AND SECONDARY SCHOOLS,https://nces.ed.gov/ccd/schoolsearch/school_list.asp?schoolid=120015000139,2024-01-31 00:00:00,IMAGERY/OTHER,2016-03-09 00:00:00,http://www.gemini.brevard.k12.fl.us,ELEMENTARY,468,PK,06,1200150,33,NOT AVAILABLE
-80.64540159199998,28.14117675600005,120015000140,DR. W.J. CREEL ELEMENTARY SCHOOL,2000 GLENWOOD DR,MELBOURNE,FL,32935,5494,(321) 259-3233,1,1,675,BREVARD,12009,USA,28.1411768,-80.6454016,611110,ELEMENTARY AND SECONDARY SCHOOLS,https://nces.ed.gov/ccd/schoolsearch/school_list.asp?schoolid=120015000140,2024-01-31 00:00:00,IMAGERY,2016-03-09 00:00:00,http://www.creel.brevard.k12.fl.us,ELEMENTARY,626,PK,06,1200150,49,10793466
-80.82527389499995,28.47975557600006,120015002036,ENTERPRISE ELEMENTARY SCHOOL,7000 ENTERPRISE RD,COCOA,FL,32927,4105,(321) 633-3434,1,1,640,BREVARD,12009,USA,28.4797556,-80.8252739,611110,ELEMENTARY AND SECONDARY SCHOOLS,https://nces.ed.gov/ccd/schoolsearch/school_list.asp?schoolid=120015002036,2024-01-31 00:00:00,IMAGERY/OTHER,2016-03-08 00:00:00,http://www.enterprise.brevard.k12.fl.us,ELEMENTARY,599,PK,06,1200150,41,10782153
-80.61967010399997,28.004097509000076,120015002038,PORT MALABAR ELEMENTARY SCHOOL,301 PIONEER AVE NE,PALM BAY,FL,32907,2484,(321) 725-0070,1,1,687,BREVARD,12009,USA,28.0040975,-80.6196701,611110,ELEMENTARY AND SECONDARY SCHOOLS,https://nces.ed.gov/ccd/schoolsearch/school_list.asp?schoolid=120015002038,2024-01-31 00:00:00,IMAGERY/OTHER,2016-03-09 00:00:00,http://www.portmalabar.es.brevard.k12.fl.us,ELEMENTARY,640,PK,06,1200150,47,NOT AVAILABLE
-80.70783155499998,28.378871660000073,120015002052,NORTH/CENTRAL AREA ALTERNATIVE LEARNING CENTER,301 GROVE BLVD,MERRITT ISLAND,FL,32953,4477,(321) 633-3489,4,1,61,BREVARD,12009,USA,28.3788717,-80.7078316,611110,ELEMENTARY AND SECONDARY SCHOOLS,https://nces.ed.gov/ccd/schoolsearch/school_list.asp?schoolid=120015002052,2024-01-31 00:00:00,IMAGERY/OTHER,2020-01-15 00:00:00,NOT AVAILABLE,HIGH,54,06,12,1200150,7,NOT AVAILABLE
-80.67074228099995,28.14259222100003,120015002055,SOUTH AREA ALTERNATIVE LEARNING CENTER,2175 N WICKHAM RD,MELBOURNE,FL,32935,8109,(321) 242-4770,4,1,74,BREVARD,12009,USA,28.1425922,-80.6707423,611110,ELEMENTARY AND SECONDARY SCHOOLS,https://nces.ed.gov/ccd/schoolsearch/school_list.asp?schoolid=120015002055,2024-01-31 00:00:00,IMAGERY,2010-05-13 00:00:00,NOT AVAILABLE,HIGH,67,05,12,1200150,7,NOT AVAILABLE
-80.65881221599994,28.025864314000046,120015002112,LOCKMAR ELEMENTARY SCHOOL,525 PEPPER ST NE,PALM BAY,FL,32907,1340,(321) 676-3730,1,1,628,BREVARD,12009,USA,28.0258643,-80.6588122,611110,ELEMENTARY AND SECONDARY SCHOOLS,https://nces.ed.gov/ccd/schoolsearch/school_list.asp?schoolid=120015002112,2024-01-31 00:00:00,IMAGERY/OTHER,2016-03-09 00:00:00,http://www.lockmar.brevard.k12.fl.us,ELEMENTARY,583,PK,06,1200150,45,NOT AVAILABLE
-80.66068971699997,27.98857274900007,120015002281,JOHN F. TURNER SENIOR ELEMENTARY SCHOOL,3175 JUPITER BLVD SE,PALM BAY,FL,32909,4106,(321) 676-5700,1,1,581,BREVARD,12009,USA,27.9885727,-80.6606897,611110,ELEMENTARY AND SECONDARY SCHOOLS,https://nces.ed.gov/ccd/schoolsearch/school_list.asp?schoolid=120015002281,2024-01-31 00:00:00,IMAGERY/OTHER,2016-03-09 00:00:00,http://www.turner.brevard.k12.fl.us,ELEMENTARY,543,PK,06,1200150,38,NOT AVAILABLE
-80.80001781199996,28.466364085000066,120015002483,CHALLENGER 7 ELEMENTARY SCHOOL,6135 RENA AVE,COCOA,FL,32927,8260,(321) 636-5801,1,1,536,BREVARD,12009,USA,28.4663641,-80.8000178,611110,ELEMENTARY AND SECONDARY SCHOOLS,https://nces.ed.gov/ccd/schoolsearch/school_list.asp?schoolid=120015002483,2024-01-31 00:00:00,IMAGERY/OTHER,2016-03-08 00:00:00,http://www.challenger.brevard.k12.fl.us,ELEMENTARY,501,PK,06,1200150,35,NOT AVAILABLE
-80.63845808999997,27.967686205000064,120015002484,COLUMBIA ELEMENTARY SCHOOL,1225 WACO BLVD SE,PALM BAY,FL,32909,5306,(321) 676-1319,1,1,540,BREVARD,12009,USA,27.9676862,-80.6384581,611110,ELEMENTARY AND SECONDARY SCHOOLS,https://nces.ed.gov/ccd/schoolsearch/school_list.asp?schoolid=120015002484,2024-01-31 00:00:00,IMAGERY,2016-03-09 00:00:00,http://www.columbia.brevard.k12.fl.us,ELEMENTARY,506,PK,06,1200150,34,NOT AVAILABLE
-80.67427756399996,28.009553909000033,120015002485,CHRISTA MCAULIFFE ELEMENTARY SCHOOL,155 DEL MUNDO ST NW,PALM BAY,FL,32907,1862,(321) 768-0465,1,1,658,BREVARD,12009,USA,28.0095539,-80.6742776,611110,ELEMENTARY AND SECONDARY SCHOOLS,https://nces.ed.gov/ccd/schoolsearch/school_list.asp?schoolid=120015002485,2024-01-31 00:00:00,IMAGERY/OTHER,2016-03-09 00:00:00,http://www.mcauliffe.brevard.k12.fl.us,ELEMENTARY,621,PK,06,1200150,37,NOT AVAILABLE
-80.66048454499997,27.990558970000052,120015002590,SOUTHWEST MIDDLE SCHOOL,451 ELDRON BLVD SE,PALM BAY,FL,32909,4044,(321) 952-5800,1,1,966,BREVARD,12009,USA,27.990559,-80.6604845,611110,ELEMENTARY AND SECONDARY SCHOOLS,https://nces.ed.gov/ccd/schoolsearch/school_list.asp?schoolid=120015002590,2024-01-31 00:00:00,IMAGERY/OTHER,2016-03-09 00:00:00,http://www.southwest.brevard.k12.fl.us,MIDDLE,920,07,08,1200150,46,10793398
-80.71868862399998,28.029686927000057,120015002591,DISCOVERY ELEMENTARY SCHOOL,1275 GLENDALE AVE NW,PALM BAY,FL,32907,8067,(321) 951-4920,1,1,683,BREVARD,12009,USA,28.0296869,-80.7186886,611110,ELEMENTARY AND SECONDARY SCHOOLS,https://nces.ed.gov/ccd/schoolsearch/school_list.asp?schoolid=120015002591,2024-01-31 00:00:00,IMAGERY,2016-03-09 00:00:00,http://www.discovery.brevard.k12.fl.us,ELEMENTARY,641,PK,06,1200150,42,10786630
-80.79564721699995,28.487523276000047,120015002662,ATLANTIS ELEMENTARY SCHOOL,7300 BRIGGS AVE,COCOA,FL,32927,8007,(321) 633-6143,1,1,660,BREVARD,12009,USA,28.4875233,-80.7956472,611110,ELEMENTARY AND SECONDARY SCHOOLS,https://nces.ed.gov/ccd/schoolsearch/school_list.asp?schoolid=120015002662,2024-01-31 00:00:00,IMAGERY,2016-03-09 00:00:00,http://www.atlantis.brevard.k12.fl.us/,ELEMENTARY,617,PK,06,1200150,43,10787160
-80.64361093599996,28.028783384000064,120015002698,RIVIERA ELEMENTARY SCHOOL,351 RIVIERA DR NE,PALM BAY,FL,32905,6327,(321) 676-4237,1,1,739,BREVARD,12009,USA,28.0287834,-80.6436109,611110,ELEMENTARY AND SECONDARY SCHOOLS,https://nces.ed.gov/ccd/schoolsearch/school_list.asp?schoolid=120015002698,2024-01-31 00:00:00,IMAGERY,2016-03-09 00:00:00,http://www.riviera.brevard.k12.fl.us,ELEMENTARY,696,PK,06,1200150,43,10782069
-80.69805724899999,27.986918582000044,120015002799,JUPITER ELEMENTARY SCHOOL,950 TUPELO RD SW,PALM BAY,FL,32908,7554,(321) 952-5990,1,1,779,BREVARD,12009,USA,27.9869186,-80.6980572,611110,ELEMENTARY AND SECONDARY SCHOOLS,https://nces.ed.gov/ccd/schoolsearch/school_list.asp?schoolid=120015002799,2024-01-31 00:00:00,IMAGERY,2016-03-09 00:00:00,http://www.jupiter.brevard.k12.fl.us,ELEMENTARY,732,PK,06,1200150,47,10782154
-80.82732895699996,28.476776788000052,120015002977,SPACE COAST JUNIOR/SENIOR HIGH SCHOOL,6150 BANYAN ST,COCOA,FL,32927,8911,(321) 638-0750,1,1,1614,BREVARD,12009,USA,28.4767768,-80.827329,611110,ELEMENTARY AND SECONDARY SCHOOLS,https://nces.ed.gov/ccd/schoolsearch/school_list.asp?schoolid=120015002977,2024-01-31 00:00:00,IMAGERY,2010-05-13 00:00:00,http://www.spacecoast.brevard.k12.fl.us,HIGH,1534,07,12,1200150,80,10790641
-80.78437637099995,28.449378102000026,120015003023,BREVARD COUNTY JAIL COMPLEX,5225 DEWITT AVE,COCOA,FL,32927,4302,(321) 690-1500,4,1,5,BREVARD,12009,USA,28.4493781,-80.7843764,611110,ELEMENTARY AND SECONDARY SCHOOLS,https://nces.ed.gov/ccd/schoolsearch/school_list.asp?schoolid=120015003023,2024-01-31 00:00:00,IMAGERY/OTHER,2015-06-23 00:00:00,NOT AVAILABLE,HIGH,4,05,12,1200150,1,NOT AVAILABLE
-80.73664050599996,28.248219190000043,120015003024,PRE-K ESE SERVICES,2700 JUDGE FRAN JAMIESON WAY,VIERA,FL,32940,6601,(321) 633-1000,2,1,206,BREVARD,12009,USA,28.2482192,-80.7366405,611110,ELEMENTARY AND SECONDARY SCHOOLS,https://nces.ed.gov/ccd/schoolsearch/school_list.asp?schoolid=120015003024,2024-01-31 00:00:00,IMAGERY/OTHER,2019-01-02 00:00:00,NOT AVAILABLE,PREKINDERGARTEN,196,PK,PK,1200150,10,NOT AVAILABLE
-80.71320128199994,28.12280376500007,120015003025,MELBOURNE CENTER FOR PERSONAL GROWTH,1000 INSPIRATION LN,MELBOURNE,FL,32934,9140,(321) 752-3200,4,1,15,BREVARD,12009,USA,28.1228038,-80.7132013,611110,ELEMENTARY AND SECONDARY SCHOOLS,https://nces.ed.gov/ccd/schoolsearch/school_list.asp?schoolid=120015003025,2024-01-31 00:00:00,IMAGERY,2010-05-13 00:00:00,NOT AVAILABLE,HIGH,13,07,12,1200150,2,NOT AVAILABLE
-80.70816955899994,28.234236989000067,120015003026,DEVEREUX HOSPITAL,8000 DEVEREUX DR,VIERA,FL,32940,7907,(321) 242-9100,2,1,78,BREVARD,12009,USA,28.234237,-80.7081696,611110,ELEMENTARY AND SECONDARY SCHOOLS,https://nces.ed.gov/ccd/schoolsearch/school_list.asp?schoolid=120015003026,2024-01-31 00:00:00,GEOCODE,2016-03-08 00:00:00,NOT AVAILABLE,OTHER,63,KG,12,1200150,15,NOT AVAILABLE
-80.78502549499996,28.417659382000068,120015003150,BREVARD GROUP TREATMENT HOME,3905 GRISSOM PKWY,COCOA,FL,32926,3669,(321) 637-1886,4,2,-999,BREVARD,12009,USA,28.4176594,-80.7850255,611110,ELEMENTARY AND SECONDARY SCHOOLS,https://nces.ed.gov/ccd/schoolsearch/school_list.asp?schoolid=120015003150,2024-01-31 00:00:00,IMAGERY/OTHER,2010-05-13 00:00:00,NOT AVAILABLE,NOT REPORTED,-999,M,M,1200150,-999,NOT AVAILABLE
-80.67518901199998,27.95103060200006,120015003293,BAYSIDE HIGH SCHOOL,1901 DEGROODT RD SW,PALM BAY,FL,32908,1206,(321) 956-5000,1,1,1935,BREVARD,12009,USA,27.9510306,-80.675189,611110,ELEMENTARY AND SECONDARY SCHOOLS,https://nces.ed.gov/ccd/schoolsearch/school_list.asp?schoolid=120015003293,2024-01-31 00:00:00,IMAGERY,2016-03-09 00:00:00,http://www.bayside.brevard.k12.fl.us/,HIGH,1854,09,12,1200150,81,10782141
-80.67468109599997,27.943943148000074,120015003294,WESTSIDE ELEMENTARY SCHOOL,2175 DEGROODT RD SW,PALM BAY,FL,32908,1274,(321) 956-5050,1,1,846,BREVARD,12009,USA,27.9439431,-80.6746811,611110,ELEMENTARY AND SECONDARY SCHOOLS,https://nces.ed.gov/ccd/schoolsearch/school_list.asp?schoolid=120015003294,2024-01-31 00:00:00,IMAGERY/OTHER,2016-03-09 00:00:00,http://www.westside.brevard.k12.fl.us,ELEMENTARY,798,PK,06,1200150,48,10786622
-80.67404356499998,28.17870023300003,120015003295,LONGLEAF ELEMENTARY SCHOOL,4290 N WICKHAM RD,MELBOURNE,FL,32935,2476,(321) 242-4700,1,1,674,BREVARD,12009,USA,28.1787002,-80.6740436,611110,ELEMENTARY AND SECONDARY SCHOOLS,https://nces.ed.gov/ccd/schoolsearch/school_list.asp?schoolid=120015003295,2024-01-31 00:00:00,IMAGERY,2016-03-09 00:00:00,http://www.longleaf.brevard.k12.fl.us,ELEMENTARY,631,PK,06,1200150,43,10787175
-80.62675305199997,28.10779433700003,120015003296,WEST SHORE JUNIOR/SENIOR HIGH SCHOOL,250 WILDCAT ALLEY,MELBOURNE,FL,32935,6405,(321) 242-4730,1,1,980,BREVARD,12009,USA,28.1077943,-80.6267531,611110,ELEMENTARY AND SECONDARY SCHOOLS,https://nces.ed.gov/ccd/schoolsearch/school_list.asp?schoolid=120015003296,2024-01-31 00:00:00,IMAGERY,2010-05-13 00:00:00,http://www.westshore.brevard.k12.fl.us,HIGH,930,07,12,1200150,50,NOT AVAILABLE
-80.61077338199993,28.03423207000003,120015003297,PALM BAY ACADEMY CHARTER SCHOOL,2112 PALM BAY RD NE,PALM BAY,FL,32905,2915,(321) 984-2710,1,1,382,BREVARD,12009,USA,28.0342321,-80.6107734,611110,ELEMENTARY AND SECONDARY SCHOOLS,https://nces.ed.gov/ccd/schoolsearch/school_list.asp?schoolid=120015003297,2024-01-31 00:00:00,IMAGERY/OTHER,2016-03-08 00:00:00,http://www.palmbayacademy.org,ELEMENTARY,364,KG,08,1200150,18,NOT AVAILABLE
-80.71695528499998,28.280238444000076,120015003538,RALPH M WILLIAMS JUNIOR ELEMENTARY SCHOOL,1700 CLUBHOUSE DR,ROCKLEDGE,FL,32955,6614,(321) 617-7700,1,1,490,BREVARD,12009,USA,28.2802384,-80.7169553,611110,ELEMENTARY AND SECONDARY SCHOOLS,https://nces.ed.gov/ccd/schoolsearch/school_list.asp?schoolid=120015003538,2024-01-31 00:00:00,IMAGERY/OTHER,2016-03-08 00:00:00,http://www.williams.brevard.k12.fl.us,ELEMENTARY,451,PK,06,1200150,39,10793467
-80.65790438299996,27.95391978200007,120015003540,ODYSSEY CHARTER SCHOOL,1755 ELDRON BLVD SE,PALM BAY,FL,32909,6832,(321) 733-0442,1,1,1931,BREVARD,12009,USA,27.9539198,-80.6579044,611110,ELEMENTARY AND SECONDARY SCHOOLS,https://nces.ed.gov/ccd/schoolsearch/school_list.asp?schoolid=120015003540,2024-01-31 00:00:00,IMAGERY/OTHER,2016-03-08 00:00:00,http://www.odysseycharterschool.com,OTHER,1847,KG,12,1200150,84,NOT AVAILABLE
-80.81516192799995,28.51938932300004,120015003541,SCULPTOR CHARTER SCHOOL,1301 ARMSTRONG DR,TITUSVILLE,FL,32780,7907,(321) 264-4000,1,1,591,BREVARD,12009,USA,28.5193893,-80.8151619,611110,ELEMENTARY AND SECONDARY SCHOOLS,https://nces.ed.gov/ccd/schoolsearch/school_list.asp?schoolid=120015003541,2024-01-31 00:00:00,IMAGERY/OTHER,2016-03-08 00:00:00,http://www.sculptorcharter.org,ELEMENTARY,556,KG,08,1200150,35,NOT AVAILABLE
-80.61373003999995,28.035754015000066,120015003678,RIVERDALE COUNTRY DAY SCHOOL,1975 PALM BAY RD NE,PALM BAY,FL,32905,2972,(321) 728-2856,2,1,0,BREVARD,12009,USA,28.035754,-80.61373,611110,ELEMENTARY AND SECONDARY SCHOOLS,https://nces.ed.gov/ccd/schoolsearch/school_list.asp?schoolid=120015003678,2024-01-31 00:00:00,IMAGERY,2010-05-13 00:00:00,http://www.brevarddayschoolprogram.com,OTHER,0,KG,12,1200150,0,NOT AVAILABLE
-80.67213838699996,28.085952710000072,120015003680,EDUCATIONAL HORIZONS CHARTER,1281 S WICKHAM RD,WEST MELBOURNE,FL,32904,2450,(321) 729-0786,1,1,142,BREVARD,12009,USA,28.0859527,-80.6721384,611110,ELEMENTARY AND SECONDARY SCHOOLS,https://nces.ed.gov/ccd/schoolsearch/school_list.asp?schoolid=120015003680,2024-01-31 00:00:00,IMAGERY,2010-05-13 00:00:00,http://www.educationalhorizons.net,ELEMENTARY,131,KG,06,1200150,11,NOT AVAILABLE
-80.72364793599996,28.22133321800004,120015003978,QUEST ELEMENTARY SCHOOL,8751 TRAFFORD DR,MELBOURNE,FL,32940,2236,(321) 242-1411,1,1,731,BREVARD,12009,USA,28.2213332,-80.7236479,611110,ELEMENTARY AND SECONDARY SCHOOLS,https://nces.ed.gov/ccd/schoolsearch/school_list.asp?schoolid=120015003978,2024-01-31 00:00:00,IMAGERY,2010-05-13 00:00:00,http://www.quest.brevard.k12.fl.us,ELEMENTARY,691,PK,06,1200150,40,10790321
-80.65132884599996,28.041679097000042,120015003979,IMAGINE SCHOOLS AT WEST MELBOURNE,3355 IMAGINE WAY,WEST MELBOURNE,FL,32904,9112,(321) 768-6200,1,1,617,BREVARD,12009,USA,28.0416791,-80.6513288,611110,ELEMENTARY AND SECONDARY SCHOOLS,https://nces.ed.gov/ccd/schoolsearch/school_list.asp?schoolid=120015003979,2024-01-31 00:00:00,IMAGERY/OTHER,2020-01-05 00:00:00,http://www.imaginewm.org,ELEMENTARY,588,KG,06,1200150,29,NOT AVAILABLE
-80.83674551999997,28.55163716800007,120015004059,GARDENDALE SEPARATE DAY SCHOOL,2940 COLUMBIA BLVD,TITUSVILLE,FL,32780,7801,(321) 268-3664,2,1,111,BREVARD,12009,USA,28.5516372,-80.8367455,611110,ELEMENTARY AND SECONDARY SCHOOLS,https://nces.ed.gov/ccd/schoolsearch/school_list.asp?schoolid=120015004059,2024-01-31 00:00:00,IMAGERY,2010-05-13 00:00:00,http://www.brevardschools.org,OTHER,95,KG,12,1200150,16,NOT AVAILABLE
-80.74429991699998,28.26315078400006,120015004061,MANATEE ELEMENTARY SCHOOL,3425 VIERA BLVD,VIERA,FL,32940,8000,(321) 433-0050,1,1,952,BREVARD,12009,USA,28.2631508,-80.7442999,611110,ELEMENTARY AND SECONDARY SCHOOLS,https://nces.ed.gov/ccd/schoolsearch/school_list.asp?schoolid=120015004061,2024-01-31 00:00:00,IMAGERY,2010-05-13 00:00:00,http://www.manatee.brevard.k12.fl.us,ELEMENTARY,897,PK,06,1200150,55,10775755
-80.73592567299994,28.25227530400008,120015004244,VIERA HIGH SCHOOL,6103 STADIUM PKWY,VIERA,FL,32940,8010,(321) 632-1770,1,1,2391,BREVARD,12009,USA,28.2522753,-80.7359257,611110,ELEMENTARY AND SECONDARY SCHOOLS,https://nces.ed.gov/ccd/schoolsearch/school_list.asp?schoolid=120015004244,2024-01-31 00:00:00,IMAGERY,2010-05-13 00:00:00,http://www.vhs.brevardschools.org,HIGH,2289,09,12,1200150,102,NOT AVAILABLE
